stop_id,stop_name,stop_lat,stop_lon,location_type,parent_station,platform_code
9021020000014000,Tillf Torsångs skola,60.502842,15.532400,1,,
9021020000015000,Forssaklackskolan,60.505068,15.429664,1,,
9021020000019000,Kvarnsvedens skola,60.521424,15.412194,1,,
9021020000020000,Kyrkskolan,60.449008,15.476115,1,,
9021020000023000,Nygårdsskolan,60.481144,15.399953,1,,
9021020000033000,BK Kyna 300,60.505230,15.581190,1,,
9021020000056000,Britsarvsskolan/Tegelbruk SHPL,60.623370,15.618068,1,,
9021020000057000,Toftaskolan SHPL,60.716982,15.791587,1,,
9021020000068000,Vikaskolan SHPL,60.516581,15.714941,1,,
9021020000072000,Grycksboskolan SHPL,60.688861,15.479077,1,,
9021020000080000,Digerbergets Skola,61.087704,14.638302,1,,
9021020000086000,Risänget,60.680079,15.810012,1,,
9021020000087000,Skuggarvet,60.661623,15.692165,1,,
9021020000088000,Rostberg skolhållplats,60.679471,15.688553,1,,
9021020000089000,Lövänget skolhållplats,60.671173,15.750065,1,,
9021020000090000,Ramsnäs skolhållplats,60.683315,15.772077,1,,
9021020000092000,Krokfors,60.622474,15.767155,1,,
9021020000103000,Tylla öster,60.458189,15.568631,1,,
9021020000115000,Fjällgrycksbo,60.797544,15.544653,1,,
9021020000116000,Hillersboda östra,60.701590,15.946297,1,,
9021020000117000,Uvnäs,60.698548,15.628431,1,,
9021020000118000,Haghed,60.691760,15.595392,1,,
9021020000119000,Rog (Falun),60.746138,15.569164,1,,
9021020000135000,Enbacka skola,60.414404,15.604141,1,,
9021020000137000,Klockarskolan,60.345766,15.741698,1,,
9021020000140000,Stora Skedvi skola,60.405017,15.808148,1,,
9021020000146000,Räddningstjänsten Bysjön,60.527949,15.400150,1,,
9021020000150000,BK Jakobsberg,60.435411,15.445362,1,,
9021020000151000,BK Solgård Gylle,60.467643,15.446149,1,,
9021020000153000,Gyllehemsvägen,60.472834,15.454092,1,,
9021020000167000,Åvestadalsskolan,60.124243,16.214405,1,,
9021020000172000,Jonsboskolan,60.457772,16.030458,1,,
9021020000174000,Smedby skola,60.389018,15.999066,1,,
9021020000175000,Stureskolan,60.276503,15.981126,1,,
9021020000176000,Vasaskolan,60.278391,15.992505,1,,
9021020000178000,Västerby skola,60.307393,15.937244,1,,
9021020000179000,Hagen,60.659193,15.826357,1,,
9021020000180000,Slingan Kårtäkt,60.659971,15.840036,1,,
9021020000183000,Baggärdet,60.636286,15.842661,1,,
9021020000193000,BK Dalsjövägen,60.491470,15.519380,1,,
9021020000194000,Gamla Berget,60.602495,15.588655,1,,
9021020000195000,Hobborn,60.647087,15.755481,1,,
9021020000196000,Lustebo,60.696417,15.412215,1,,
9021020000197000,Västanbäck,60.600226,15.558882,1,,
9021020000204000,Solberga norra skolhpl,60.979442,15.224441,1,,
9021020000210000,BK Floda by 40,60.431113,15.321263,1,,
9021020000212000,BK Bäck,60.433051,15.338540,1,,
9021020000213000,BK Sellnäs IF,60.425603,15.336305,1,,
9021020000215000,BK Reyiers gård,60.388066,15.378318,1,,
9021020000220000,BK Strandbro 105,60.425658,15.449755,1,,
9021020000225000,BK Hovgården Bygdegård,60.405245,15.535724,1,,
9021020000226000,BK Knutshyttan,60.386835,15.530383,1,,
9021020000227000,BK Skärsjöbro,60.389166,15.529365,1,,
9021020000228000,BK Skärsjöbro 62,60.395908,15.529979,1,,
9021020000232000,BK Långsjö norr,60.411414,15.520139,1,,
9021020000234000,BK Övre Svärdsjö kurvan,60.422670,15.538103,1,,
9021020000237000,BK Rommeholen,60.435642,15.514006,1,,
9021020000242000,BK Tylla väster,60.458074,15.545643,1,,
9021020000244000,BK Sunnanö 200,60.478696,15.595067,1,,
9021020000245000,BK Sunnanö 190,60.476667,15.594662,1,,
9021020000246000,BK Sunnanö 180,60.473774,15.592535,1,,
9021020000247000,BK Sunnanö 150,60.471147,15.583099,1,,
9021020000248000,BK Räfstylla,60.460688,15.576119,1,,
9021020000249000,BK Räfstylla 27,60.462621,15.573016,1,,
9021020000252000,BK Storsund,60.508694,15.591887,1,,
9021020000257000,BK Ovandal,60.484323,15.509676,1,,
9021020000258000,BK Holgatan,60.488975,15.466104,1,,
9021020000259000,BK Barbergsvägen,60.493701,15.478590,1,,
9021020000260000,BK Barbergsvägen 20,60.495172,15.478429,1,,
9021020000263000,Skärbacken,60.707624,15.399240,1,,
9021020000264000,Hedningbacken,60.700970,15.404232,1,,
9021020000265000,Boda Sundborn,60.652046,15.745565,1,,
9021020000267000,Björnmyra,60.643065,15.732385,1,,
9021020000269000,Slättberg,60.752159,15.493966,1,,
9021020000276000,Kallesbacken,60.757976,15.371786,1,,
9021020000279000,Östbjörka norra skolhpl,60.972883,15.130308,1,,
9021020000280000,Östbjörka Södra,60.969079,15.141505,1,,
9021020000287000,Centrumvägen,60.692165,15.487208,1,,
9021020000289000,Liss Radio,60.696022,15.482501,1,,
9021020000294000,Näset Bjursås,60.719787,15.450586,1,,
9021020000302000,Sör Amsberg,60.522755,15.383590,1,,
9021020000305000,Björsberg,60.780035,15.464768,1,,
9021020000307000,Kvarntäkt,60.745369,15.469463,1,,
9021020000312000,Forshuvudet,60.538103,15.416182,1,,
9021020000313000,Glistjärna skolhpl,60.927168,15.097569,1,,
9021020000314000,Rexbo Bjursås,60.741775,15.406123,1,,
9021020000315000,Limbo,60.747434,15.362045,1,,
9021020000316000,Morsveden,60.741037,15.408479,1,,
9021020000318000,Järgarvet,60.667980,15.541626,1,,
9021020000320000,Harmsarvsvägen,60.681894,15.504657,1,,
9021020000321000,Bärstigen,60.697509,15.481242,1,,
9021020000322000,Svedjevägen,60.698220,15.478415,1,,
9021020000323000,Österå,60.664216,15.619330,1,,
9021020000325000,Gimsbärke,60.547202,15.275153,1,,
9021020000328000,Täktgårdarna,60.548236,15.413436,1,,
9021020000332000,Hult,60.658854,15.629894,1,,
9021020000341000,BK Järpbo,60.455165,15.413470,1,,
9021020000342000,BK Trönövägen,60.451827,15.448814,1,,
9021020000343000,BK Trönövägen 32,60.453739,15.455479,1,,
9021020000344000,BK Trönövägen 16,60.455508,15.459404,1,,
9021020000348000,BK Ägovägen 1,60.463997,15.480234,1,,
9021020000349000,BK Tyllsnäsvägen,60.461017,15.499056,1,,
9021020000350000,BK Bergsveden,60.455685,15.506376,1,,
9021020000352000,BK Sahlins,60.453205,15.493697,1,,
9021020000353000,BK Föreningsgatan 18,60.475848,15.463805,1,,
9021020000357000,BK Täkt,60.434733,15.399751,1,,
9021020000363000,BK Betesgatan,60.497886,15.413208,1,,
9021020000364000,Svedsgården,60.682315,15.852192,1,,
9021020000365000,Hedsveden,60.682236,15.844872,1,,
9021020000366000,Hillersboda,60.714416,15.926441,1,,
9021020000378000,Vallbyn,60.809216,15.739315,1,,
9021020000381000,Björkboda norr,60.828400,15.683612,1,,
9021020000394000,Vågsjön,60.827646,15.779570,1,,
9021020000396000,Yttertänger östra,60.837130,15.771471,1,,
9021020000397000,Tängerbergstjärnsvägen,60.840754,15.764994,1,,
9021020000413000,Hemingsbo,60.611929,15.518238,1,,
9021020000414000,Dammen Falun,60.606300,15.543317,1,,
9021020000432000,Bäckänget,60.665594,15.813924,1,,
9021020000444000,Kraftgatan,60.289562,15.981413,1,,
9021020000451000,Rensbo,60.253390,16.055300,1,,
9021020000452000,Jönvik,60.264661,16.100459,1,,
9021020000457000,Gamla fyrklöverskolan,60.267969,15.980430,1,,
9021020000469000,Vikarbyn,60.399835,16.104961,1,,
9021020000470000,Hanåker,60.403503,16.085800,1,,
9021020000471000,Ekevallen,60.356799,16.057374,1,,
9021020000472000,Brovall,60.365279,16.067442,1,,
9021020000473000,Sundfiske,60.383404,16.030563,1,,
9021020000474000,Övernora,60.366383,16.027873,1,,
9021020000476000,Vikänget,60.332292,16.055212,1,,
9021020000477000,Svinöhed,60.415203,16.074267,1,,
9021020000478000,Stjärnsund,60.434375,16.206519,1,,
9021020000479000,Backabro,60.715283,15.748779,1,,
9021020000480000,Backa Toftbyn,60.712016,15.774775,1,,
9021020000481000,Backabro riksvägen,60.710569,15.767616,1,,
9021020000483000,Kvarntäkt övre,60.727549,15.767430,1,,
9021020000484000,Kvarntäkt nedre,60.723602,15.771613,1,,
9021020000486000,Hagelsnäs,60.476961,15.802806,1,,
9021020000487000,Lund,60.478896,15.775111,1,,
9021020000489000,Centrumrondellen,60.278860,15.983705,1,,
9021020000492000,Rensbyn södra,60.492610,15.693397,1,,
9021020000493000,Kniva,60.557492,15.813899,1,,
9021020000494000,Myckelby,60.420844,15.949336,1,,
9021020000495000,Rörshyttan,60.441739,16.163815,1,,
9021020000496000,Stigsbo,60.453927,16.268940,1,,
9021020000498000,Berga,60.405903,15.977629,1,,
9021020000499000,Amshyttan,60.434887,15.943477,1,,
9021020000501000,Ivarshyttan,60.337153,16.003974,1,,
9021020000502000,Skoga,60.325823,16.044177,1,,
9021020000503000,Älvnäs,60.317672,16.059661,1,,
9021020000504000,Hamre,60.296441,16.021522,1,,
9021020000505000,Bergbacken,60.311178,15.998137,1,,
9021020000506000,Bältarbo,60.301458,15.985438,1,,
9021020000507000,Tviksta,60.296830,15.976298,1,,
9021020000508000,Tyllsnäsvägen viapunkt,60.465228,15.477113,1,,
9021020000512000,Tallbacken,60.504293,15.510276,1,,
9021020000518000,Hinshyttan,60.473923,16.038424,1,,
9021020000519000,Långsbyn,60.454806,16.048408,1,,
9021020000520000,Sandbacka,60.442221,16.068259,1,,
9021020000521000,Samuelsdal,60.431495,16.059457,1,,
9021020000522000,Spjutbo,60.418094,16.275328,1,,
9021020000523000,Sandvika,60.429818,16.228869,1,,
9021020000546000,Mästerbo,60.144088,16.234432,1,,
9021020000547000,Pellbo,60.187308,16.355463,1,,
9021020000548000,Ersbacken,60.189639,16.310837,1,,
9021020000549000,Lorentzgården,60.187970,16.289201,1,,
9021020000550000,Byvalla,60.346654,16.416095,1,,
9021020000551000,Tommesbo,60.284293,16.387963,1,,
9021020000552000,Rosslandet,60.294836,16.434026,1,,
9021020000553000,Bodarne,60.249359,16.493595,1,,
9021020000554000,Rossberga,60.263764,16.408682,1,,
9021020000556000,Grönsinkavägen,60.296473,16.421906,1,,
9021020000557000,Vatebo affär,60.262149,16.495218,1,,
9021020000558000,Hede,60.240912,16.431966,1,,
9021020000559000,Fallet,60.288711,16.362460,1,,
9021020000560000,Fornby,60.266222,16.445330,1,,
9021020000568000,Vansjö,60.082114,16.207991,1,,
9021020000569000,Näset,60.082749,16.217449,1,,
9021020000570000,Brogård,60.138368,16.218143,1,,
9021020000573000,Kårbo,60.193370,16.243294,1,,
9021020000579000,Born,60.188467,16.624982,1,,
9021020000580000,Hovnäs,60.190201,16.605521,1,,
9021020000581000,Åkersbyn,60.225217,16.559295,1,,
9021020000582000,Mesta,60.168822,16.388173,1,,
9021020000583000,N Strandmora,60.171096,16.399634,1,,
9021020000584000,Spisbo,60.186234,16.441216,1,,
9021020000585000,Rudu,60.189831,16.447270,1,,
9021020000586000,Leknäs,60.188653,16.583656,1,,
9021020000587000,Fullsta,60.193002,16.510479,1,,
9021020000599000,St Mikaelskolan skolhpl,61.011406,14.562041,1,,
9021020000602000,Björänget,60.433559,15.740198,1,,
9021020000603000,Gussarvshyttan,60.440525,15.725998,1,,
9021020000604000,Ingarvshyttan,60.423983,15.724006,1,,
9021020000605000,Stocksbro,60.416843,15.749742,1,,
9021020000607000,Västerby,60.406352,15.732197,1,,
9021020000608000,Stora Skedvi,60.403742,15.811468,1,,
9021020000609000,Forsnäs,60.398686,15.835919,1,,
9021020000610000,Mårtensgård,60.376323,15.736779,1,,
9021020000611000,Södersätra,60.408922,15.760734,1,,
9021020000612000,Nisshyttan,60.276935,15.725821,1,,
9021020000613000,Lerviken,60.321833,15.779242,1,,
9021020000614000,Kullsveden,60.333959,15.785930,1,,
9021020000615000,Klacken,60.342362,15.805772,1,,
9021020000616000,Pungmakarbo,60.343672,15.813668,1,,
9021020000617000,Yttre Heden,60.332748,15.823857,1,,
9021020000618000,Kullsveden rv 70,60.335576,15.795000,1,,
9021020000619000,Dalkarlsnäs,60.324581,15.754083,1,,
9021020000620000,Gessån,60.310856,15.781006,1,,
9021020000621000,Embjörs,60.283231,15.733705,1,,
9021020000629000,Hysta,60.418419,15.848443,1,,
9021020000630000,Nygårdarna,60.430030,15.857210,1,,
9021020000631000,Kullback,60.437320,15.871478,1,,
9021020000632000,Guldsmedsbo,60.437414,15.833230,1,,
9021020000633000,Gammelgården,60.443421,15.812146,1,,
9021020000634000,Kvarnsveden,60.425397,15.783931,1,,
9021020000635000,Landa,60.402934,15.814189,1,,
9021020000636000,Uppbo,60.399036,15.882576,1,,
9021020000637000,Anstahyttan,60.391035,15.902433,1,,
9021020000638000,Ansta,60.392320,15.932707,1,,
9021020000639000,Jans,60.417687,15.831345,1,,
9021020000640000,Murmästarbo,60.440261,15.791349,1,,
9021020000642000,Finnbo,60.441892,15.837176,1,,
9021020000643000,Mora by,60.403062,15.594179,1,,
9021020000644000,Naglarby,60.420124,15.573084,1,,
9021020000645000,Solvarbo,60.389710,15.664284,1,,
9021020000646000,Skönvikshallen,60.344012,15.719553,1,,
9021020000650000,Kyrkbyns skola skolhpl,61.121201,14.616971,1,,
9021020000653000,Blåtryvägen skolhpl,61.106640,14.641313,1,,
9021020000654000,Oljonsbyn skolhpl,61.096493,14.655368,1,,
9021020000655000,Vångsgärde syd skolhpl,61.077685,14.619549,1,,
9021020000656000,Stormyrgatan skolhpl,61.123341,14.624499,1,,
9021020000657000,Målargränd skolhpl,61.120142,14.628181,1,,
9021020000658000,Holen syd skolhpl,61.086677,14.625533,1,,
9021020000659000,Grindals väg skolhpl,61.099876,14.635443,1,,
9021020000660000,Kungshaga syd skolhpl,61.092320,14.633460,1,,
9021020000661000,Wixnersvägen syd skolhpl,61.082242,14.621250,1,,
9021020000662000,Orsaskolan skolhpl,61.126907,14.623902,1,,
9021020000664000,Kungshaga nord skolhpl,61.092320,14.633460,1,,
9021020000665000,Wixnersvägen nord skolhpl,61.082242,14.621250,1,,
9021020000666000,Vångsgärde norr Skolhpl,61.077899,14.619393,1,,
9021020000667000,Holen norr skolhpl,61.086677,14.625533,1,,
9021020000676000,Bygdegården Långlet skolhpl,61.021785,14.460476,1,,
9021020085999000,Junibackens skola,60.133811,15.210914,1,,
9021020337023000,Fensbol,60.221515,13.017055,1,,
9021020337068000,"Torsby, Skallebyn",60.147047,13.011534,1,,
9021020337069000,Skansenvägen,60.239294,13.009636,1,,
9021020337087000,Torsby Resecentrum,60.136282,13.000186,1,,
9021020337089000,"Torsby, Kyrkogatan",60.135162,13.009662,1,,
9021020337091000,"Torsby, Stjerneskolan",60.139286,13.011455,1,,
9021020337099000,Värnäs bytespunkt,60.423482,13.257289,1,,
9021020337101000,Åsteby,60.264912,13.025689,1,,
9021020337104000,Överbyn,60.275212,13.029551,1,,
9021020337105000,"Torsby, Holmesskolan",60.136690,12.993597,1,,
9021020337108000,Västra Vadje,60.248325,13.012479,1,,
9021020337109000,Petteråsen,60.224896,13.016370,1,,
9021020337110000,Kollerud,60.215415,13.015678,1,,
9021020337111000,Robjörkeby,60.156282,13.021470,1,,
9021020337112000,Södra Utterbyn,60.163421,13.021442,1,,
9021020337113000,"Torsby, Östmarksvägen",60.134780,13.004347,1,,
9021020337114000,Utterbyn,60.170428,13.031357,1,,
9021020337115000,Norra Utterbyn,60.175344,13.032402,1,,
9021020337116000,Höviken,60.199106,13.049121,1,,
9021020337149000,"Torsby, Vinkelvägen",60.150160,13.010928,1,,
9021020337168000,Östra Vadje,60.256429,13.022885,1,,
9021020337169000,Norra Överbyn,60.281185,13.031722,1,,
9021020337170000,Nötövägen,60.289080,13.052506,1,,
9021020337171000,Stöllet rv 62,60.410673,13.272562,1,,
9021020337172000,Stöllet Konsum,60.405747,13.273743,1,,
9021020404003000,Barkhyttan,60.564235,16.383103,1,,
9021020404007000,Bergviken,60.569941,16.417980,1,,
9021020404009000,Hofors Born,60.544695,16.303052,1,,
9021020404011000,Bäcken,60.564010,16.366397,1,,
9021020404015000,Hofors Edsken,60.542392,16.231812,1,,
9021020404020000,Hofors Faluvägen,60.541370,16.284581,1,,
9021020404022000,Hofors Furulund,60.541803,16.247455,1,,
9021020404026000,Hofors Centrum,60.544962,16.286548,1,,
9021020404027000,Hofors jvstn,60.569571,16.266324,1,,
9021020404028000,Hoforsbacken,60.560651,16.331774,1,,
9021020404037000,Kvatten,60.567037,16.397284,1,,
9021020404048000,Hofors Rondellen,60.542400,16.292723,1,,
9021020404050000,Rättargården,60.569364,16.408779,1,,
9021020404051000,Hofors Rönningen,60.541457,16.277768,1,,
9021020404052000,Sibbersbo,60.562955,16.356880,1,,
9021020404060000,Svens,60.569516,16.456669,1,,
9021020404061000,Sälgsjön,60.569878,16.450458,1,,
9021020404062000,Sälgsjönäs,60.569959,16.423871,1,,
9021020404067000,Hofors Tigréns,60.545077,16.292107,1,,
9021020404107000,Torsåker jvstn,60.514148,16.489165,1,,
9021020421006000,Blyss,61.370076,15.745730,1,,
9021020421007000,Dulsa,61.345881,15.652556,1,,
9021020421008000,Homna,61.346596,15.620862,1,,
9021020421009000,Stenkullen,61.358517,15.699843,1,,
9021020421010000,V.Homna,61.346837,15.613984,1,,
9021020421012000,Älmesbo vsk,61.354938,15.691014,1,,
9021020421013000,Älmfors,61.365502,15.732763,1,,
9021020421014000,Ö.Homna,61.346621,15.640276,1,,
9021020421021000,Edsbyn Södra,61.372817,15.818416,1,,
9021020421022000,Edsbyn Edsbyverken,61.373108,15.846188,1,,
9021020421027000,Edsbyn Soldatvägen,61.383631,15.803435,1,,
9021020421028000,Edsbyn Norra torget,61.384196,15.813500,1,,
9021020421032000,Edsbyn Skidan,61.377520,15.817165,1,,
9021020421033000,Edsbyn Sommars,61.383855,15.821002,1,,
9021020421034000,Edsbyn Svenska Fönster,61.374260,15.832873,1,,
9021020421035000,Edsbyn Trekanten,61.380984,15.815220,1,,
9021020421037000,Edsbyn Centrum,61.376057,15.818006,1,,
9021020421081000,Svabensverk,61.044881,15.794619,1,,
9021020421082000,Söderomsjön,61.312623,15.873829,1,,
9021020421091000,Born,61.373868,15.758253,1,,
9021020421092000,Trogens,61.346937,15.602099,1,,
9021020421095000,Borbäcken,61.350246,15.589015,1,,
9021020421096000,Kammahav,61.271345,15.893332,1,,
9021020421097000,Mållångsta,61.254169,15.886819,1,,
9021020421098000,Styggbo,61.223874,15.876468,1,,
9021020421099000,Skräddrabo,61.206696,15.871332,1,,
9021020421101000,Edsbyn Öjungsvägen,61.384053,15.810918,1,,
9021020421103000,Södra Flät,61.081424,15.802536,1,,
9021020421104000,Skålsjön,61.142398,15.886544,1,,
9021020421105000,Skålsjögården,61.155896,15.884136,1,,
9021020421106000,Ramfors,61.177669,15.881011,1,,
9021020421111000,Gräsheden,61.360792,15.719352,1,,
9021020421112000,Gammel-Homna,61.347483,15.673944,1,,
9021020421113000,Edsbyn Rävabergsvägen,61.383066,15.798441,1,,
9021020421114000,Edsbyn Södra torget,61.373544,15.819651,1,,
9021020421154000,Edsbyn Karlsvägen,61.375884,15.835792,1,,
9021020421486000,Edsbyn Spelmansvägen,61.374324,15.825392,1,,
9021020480119000,Gävle Central,60.676062,17.149790,1,,
9021020480176000,Gävle Gustavsbro,60.674451,17.108371,1,,
9021020480178000,Gävle Maxim,60.669938,17.155389,1,,
9021020480229000,Gävle Karlsborg,60.675327,17.114298,1,,
9021020480247000,Gävle Kvarnparken,60.673383,17.135791,1,,
9021020480334000,Gävle Rådhuset,60.675286,17.144817,1,,
9021020480350000,Gävle Sjukhus Västra Vägen,60.675657,17.121869,1,,
9021020480373000,Gävle Stadsträdgården,60.674935,17.130439,1,,
9021020480703000,Valbo E16,60.631037,16.990225,1,,
9021020481003000,Alsjövallen,60.637765,16.560619,1,,
9021020481012000,Borrsjöån,60.605785,16.621964,1,,
9021020481017000,Brokvarn,60.590990,16.537247,1,,
9021020481019000,Burmansgatan,60.588151,16.534537,1,,
9021020481024000,Dalfors,60.655334,16.508608,1,,
9021020481028000,Kungsgården Ekens backe,60.607195,16.604034,1,,
9021020481029000,Sandviken Enen,60.617740,16.766750,1,,
9021020481033000,Flyktbackavägen,60.606373,16.594337,1,,
9021020481038000,Gammelhammarvägen,60.632779,16.566149,1,,
9021020481049000,Hagmuren,60.657395,16.440831,1,,
9021020481052000,Hammarbyvägen,60.579849,16.526159,1,,
9021020481060000,Herrgården,60.606629,16.629215,1,,
9021020481061000,Hillsta,60.607409,16.638053,1,,
9021020481079000,Järn-Nissas,60.614513,16.595960,1,,
9021020481089000,Kungsgården Klockargården,60.606262,16.612902,1,,
9021020481090000,Knorringsvägen,60.621426,16.609134,1,,
9021020481091000,Konsumvägen,60.642088,16.551435,1,,
9021020481093000,Kung Oskar,60.576880,16.510772,1,,
9021020481104000,Lappåsen,60.626849,16.573554,1,,
9021020481121000,Mom,60.603276,16.577503,1,,
9021020481122000,Movägen,60.607574,16.653376,1,,
9021020481130000,Norrberg,60.623658,16.612587,1,,
9021020481145000,Pers,60.688492,16.322089,1,,
9021020481148000,Sandviken Posten,60.618390,16.776102,1,,
9021020481150000,Sandviken Promenaden,60.620065,16.761686,1,,
9021020481154000,Ringhillsta,60.607142,16.633464,1,,
9021020481156000,S. Åmotanvägen,60.654710,16.497404,1,,
9021020481164000,Sandviken Scherpbacken,60.622385,16.736785,1,,
9021020481175000,Skogsbo,60.679795,16.360302,1,,
9021020481188000,Spjutmuren,60.604274,16.584939,1,,
9021020481191000,Stationsvägen,60.644942,16.543513,1,,
9021020481194000,Sandviken Stigen,60.620972,16.703154,1,,
9021020481195000,Stocksbo,60.683690,16.345033,1,,
9021020481197000,Storvik Centralvägen,60.583462,16.528703,1,,
9021020481202000,Sågen,60.651022,16.526174,1,,
9021020481210000,Tegelbruket,60.569737,16.493182,1,,
9021020481211000,Teglas,60.655270,16.513927,1,,
9021020481212000,Texaco,60.647643,16.536957,1,,
9021020481216000,Torgbacken,60.607516,16.601321,1,,
9021020481223000,Urforsvägen,60.635350,16.562372,1,,
9021020481230000,Sandviken Valsargatan,60.621717,16.748876,1,,
9021020481233000,Vattan,60.672435,16.385915,1,,
9021020481243000,Västerberg,60.596462,16.550913,1,,
9021020481249000,Åsen,60.610449,16.603110,1,,
9021020481253000,Åshammar centrum,60.640664,16.555752,1,,
9021020481254000,Åttersta,60.621762,16.584155,1,,
9021020481267000,Övermyra,60.600785,16.564082,1,,
9021020481276000,Sandviken resecentrum,60.614604,16.780792,1,,
9021020481277000,Storvik jvstn,60.582126,16.534949,1,,
9021020481293000,Mörkviksvägen,60.653231,16.455778,1,,
9021020481303000,Sandviken Norra Porten,60.619210,16.789168,1,,
9021020481308000,Sandviken Mossvägen,60.624239,16.791294,1,,
9021020481312000,Åhs Fäbodar,60.654454,16.487818,1,,
9021020481580000,Stocksbo Storån,60.689315,16.318057,1,,
9021020521002000,Borgheden,60.480940,14.478157,1,,
9021020521004000,Verkstaden,60.464531,13.982876,1,,
9021020521006000,Rågsveden,60.472958,14.081133,1,,
9021020521007000,Triangeln Vansbro,60.513234,14.221303,1,,
9021020521008000,Strömsheden,60.503823,14.455179,1,,
9021020521009000,Högosta norra,60.523180,14.418367,1,,
9021020521010000,Grånäs östra,60.533624,14.361699,1,,
9021020521011000,Grånäs västra,60.537299,14.343917,1,,
9021020521012000,Utsälje,60.529011,14.378445,1,,
9021020521013000,Ytteråker,60.529402,14.398374,1,,
9021020521014000,Högosta nybygge,60.513274,14.432191,1,,
9021020521015000,Källbacken,60.509322,14.190327,1,,
9021020521016000,Bergheden,60.481655,14.008637,1,,
9021020521017000,Saltvik,60.514789,14.236248,1,,
9021020521018000,Rämyrbackarna,60.640021,14.145894,1,,
9021020521019000,Eriksfors,60.593406,14.172930,1,,
9021020521020000,Noret,60.552473,14.415691,1,,
9021020521021000,Gamla snickeriet (Vansbro kn),60.546877,14.411848,1,,
9021020521022000,Noret södra,60.544900,14.408225,1,,
9021020521023000,Ålheda,60.541792,14.403740,1,,
9021020521024000,Storfallet,60.523500,14.324979,1,,
9021020521026000,Eldforsen,60.435698,14.236905,1,,
9021020521027000,Grönalid industriområde,60.502169,14.242884,1,,
9021020521028000,Bilprovningen Vansbro,60.504115,14.240423,1,,
9021020521029000,Ilargårdar,60.515918,14.326873,1,,
9021020521031000,Flintjärn,60.568643,14.193166,1,,
9021020521033000,Parkskolan Vansbro,60.512231,14.220751,1,,
9021020521034000,Bussdepån Vansbro,60.509589,14.206917,1,,
9021020521035000,Vidbäcken,60.461906,13.999767,1,,
9021020521036000,Gänsenvägen,60.555541,14.415076,1,,
9021020521037000,Kyrkan Äppelbo,60.489057,14.005298,1,,
9021020521038000,Vansbro skolterminal,60.510352,14.221261,1,,
9021020521039000,Noret norra,60.559029,14.416868,1,,
9021020521040000,Smedbergsskolan,60.509655,14.216234,1,,
9021020521041000,Opsaheden,60.459878,13.990517,1,,
9021020521042000,Bageriet Äppelbo,60.459178,13.999137,1,,
9021020521043000,Säla Äppelbo,60.467932,14.007196,1,,
9021020521044000,Lappheden,60.489075,13.996363,1,,
9021020521045000,Äppelbo Ovanheden,60.483437,14.011285,1,,
9021020521046000,Stensbo,60.485035,14.017346,1,,
9021020521047000,Blåbandshuset Äppelbo,60.482418,14.026003,1,,
9021020521048000,Gullängets Idrottsplats,60.481500,14.040715,1,,
9021020521049000,Näset västra,60.478708,14.049907,1,,
9021020521050000,Näset östra,60.475039,14.059617,1,,
9021020521051000,Rågsveden Bystugan,60.473120,14.070840,1,,
9021020521052000,Finngårdarna,60.473993,14.089016,1,,
9021020521053000,Holgatan,60.518065,14.277954,1,,
9021020521054000,Skamhed,60.521556,14.282215,1,,
9021020521055000,Lindheden,60.521547,14.292442,1,,
9021020521056000,Duvnäs,60.535112,14.307686,1,,
9021020521057000,Gamla skolan Hulån,60.542592,14.306794,1,,
9021020521058000,Hulån Lantmännen,60.545578,14.306856,1,,
9021020521059000,Hulån,60.548980,14.308849,1,,
9021020521060000,Skamhed norra,60.522561,14.287687,1,,
9021020521061000,Pellheden,60.535548,14.291096,1,,
9021020521062000,Ilbäcken,60.540306,14.289898,1,,
9021020521063000,Skrikkvarn,60.551167,14.295870,1,,
9021020521064000,Skrikheden,60.555965,14.296594,1,,
9021020521065000,Svanholn,60.560200,14.297245,1,,
9021020521066000,Västhegatto,60.564218,14.298170,1,,
9021020521067000,Bystugan Skålö,60.568858,14.298847,1,,
9021020521068000,Skålö Olarstäppa,60.573481,14.301304,1,,
9021020521069000,Vålbergsvägen Skålö,60.578101,14.306179,1,,
9021020521070000,Bygatto (Vansbro kn),60.572821,14.311668,1,,
9021020521071000,Skålö Storskolan,60.566444,14.313276,1,,
9021020521072000,Österrisar,60.563330,14.317030,1,,
9021020521073000,Nordanåker vsk,60.555543,14.333613,1,,
9021020521074000,Nordanåker E16,60.554413,14.334558,1,,
9021020521075000,Morens,60.554284,14.340297,1,,
9021020521076000,Storbyvägen Dala-Järna,60.551553,14.355395,1,,
9021020521077000,Nordanåker västra,60.557463,14.340035,1,,
9021020521078000,Nordanåker,60.557260,14.344456,1,,
9021020521079000,Syster Maj,60.557151,14.354214,1,,
9021020521080000,Enholn,60.555068,14.360397,1,,
9021020521081000,Knutes,60.551253,14.364960,1,,
9021020521082000,Utsälje norra,60.532394,14.366190,1,,
9021020521083000,Utsälje södra,60.529672,14.386986,1,,
9021020521084000,Snöborg,60.526715,14.409146,1,,
9021020521085000,Högosta,60.515885,14.430296,1,,
9021020521086000,Snöå kvarn,60.513656,14.456454,1,,
9021020521087000,Snöbyn södra,60.519358,14.451746,1,,
9021020521088000,Snöbyn,60.526303,14.444935,1,,
9021020521089000,Snöå herrgård,60.535508,14.427833,1,,
9021020521090000,Kvarnåker Skolan,60.537257,14.417291,1,,
9021020521091000,Kvarnåker,60.538153,14.405974,1,,
9021020521092000,Emaus,60.539436,14.399031,1,,
9021020521093000,Utby,60.540671,14.385111,1,,
9021020521094000,Aspelinvägen Dala-Järna,60.541537,14.380089,1,,
9021020521095000,Grötholsvägen,60.544389,14.374377,1,,
9021020521096000,Dala-Järna centrum,60.548038,14.365650,1,,
9021020521097000,Brandstationen Dala-Järna,60.546192,14.367609,1,,
9021020521098000,Kyrkan Dala-järna,60.544518,14.363847,1,,
9021020521099000,Grånäs,60.537070,14.353347,1,,
9021020521100000,Morn Dala-järna,60.538534,14.332947,1,,
9021020521101000,Gruvan,60.534020,14.321701,1,,
9021020521102000,Perolsgårdarna,60.510668,14.324927,1,,
9021020521103000,Uppsälje,60.507536,14.322167,1,,
9021020521104000,Rutåvägen,60.504656,14.313853,1,,
9021020521105000,Kvarnholsforsen,60.501682,14.302441,1,,
9021020521106000,Rutån,60.499273,14.291415,1,,
9021020521107000,Gruvan södra,60.528263,14.321000,1,,
9021020521108000,Bomled,60.501759,14.253496,1,,
9021020521109000,Västkustvägen,60.509942,14.208683,1,,
9021020521110000,Dala-Järna IP,60.540262,14.391470,1,,
9021020521111000,Vårdcentralen Vansbro,60.516432,14.232127,1,,
9021020521112000,Brostugan,60.512467,14.241495,1,,
9021020521113000,Hulåns IP,60.549986,14.316568,1,,
9021020521114000,Björkvägen Vansbro,60.503074,14.238144,1,,
9021020521115000,Grönalid,60.505857,14.236608,1,,
9021020521116000,Herrgården Vansbro,60.509308,14.232363,1,,
9021020521117000,Magasinvägen,60.508949,14.230888,1,,
9021020521118000,Vansbro centrum,60.512206,14.225395,1,,
9021020521119000,Lisskvarngården,60.474806,14.470597,1,,
9021020521120000,Överborg södra,60.475764,14.480669,1,,
9021020521121000,Tyna,60.460178,14.474524,1,,
9021020521122000,Heden Vansbro,60.464444,14.471595,1,,
9021020521123000,Överborg,60.479235,14.479536,1,,
9021020521124000,Mellanborg,60.467913,14.487416,1,,
9021020521125000,Nederborg,60.460488,14.496751,1,,
9021020521126000,Kvarnnäset,60.468607,14.468761,1,,
9021020521127000,Skansbacken,60.451079,14.476587,1,,
9021020521128000,Storbygatan Nås,60.450791,14.480560,1,,
9021020521129000,Nås brandstationen,60.453461,14.496906,1,,
9021020521130000,Sveden,60.448998,14.513285,1,,
9021020521131000,Hjulbäck,60.445275,14.528857,1,,
9021020521132000,Utanhed,60.450134,14.568124,1,,
9021020521133000,Dala-Järna Myrbacka skola,60.546611,14.368192,1,,
9021020521134000,Bobevägen,60.507014,14.238099,1,,
9021020521135000,Nederborgs skola,60.453539,14.495668,1,,
9021020521136000,Nås Centrum,60.453898,14.496598,1,,
9021020521137000,Rågsveden E16,60.479354,14.062823,1,,
9021020521138000,Roddarheden,60.466966,14.053269,1,,
9021020521139000,Skifsforsen,60.500022,14.276820,1,,
9021020521140000,Närsjö,60.412228,14.506459,1,,
9021020521141000,Långholen vändplan,60.534000,14.212435,1,,
9021020521142000,Västra handelsområdet,60.504852,14.173839,1,,
9021020521143000,Van,60.622591,14.150444,1,,
9021020521144000,Malmsta,60.479025,14.467977,1,,
9021020521145000,Närsjövägen,60.444310,14.489172,1,,
9021020521147000,Bror Engs väg,60.444541,14.476282,1,,
9021020521149000,Vanåbodarna,60.559037,14.197601,1,,
9021020521150000,Sågen,60.259456,14.135452,1,,
9021020521151000,Älvgården,60.477937,14.004223,1,,
9021020521152000,Säla Risheden,60.466032,13.992846,1,,
9021020521154000,Örskogen,60.353660,14.203091,1,,
9021020521157000,Hästkullen,60.281680,14.173369,1,,
9021020521158000,Tyna Norra,60.462469,14.472967,1,,
9021020521159000,Tuvheden,60.461266,13.981768,1,,
9021020521160000,Engmans väg,60.540108,14.417788,1,,
9021020521161000,Saltvik Norra,60.524528,14.219895,1,,
9021020521976000,Flexområde Sågen,60.350586,14.183476,1,,
9021020521977000,Flexområde Lindesnäs,60.396039,14.486769,1,,
9021020521984000,Romboleden,60.455131,14.502473,1,,
9021020521985000,Flåsjövägen,60.547339,14.287947,1,,
9021020521987000,Fritids Nås skb,60.449169,14.498569,1,,
9021020521988000,Haga Nås,60.441047,14.474281,1,,
9021020521990000,Moravägen,60.533233,14.212910,1,,
9021020521991000,Sandbäcken,60.490572,14.238366,1,,
9021020521992000,Kroktorp,60.325505,14.199801,1,,
9021020521993000,Änge,60.432835,14.513609,1,,
9021020521994000,Lindesnäs,60.328203,14.532611,1,,
9021020521995000,Vansbro Reningsverk,60.511997,14.241973,1,,
9021020521996000,Dalasågen,60.529273,14.209753,1,,
9021020521997000,Närsen,60.312687,14.412271,1,,
9021020521998000,Västerfallet,60.315485,14.364106,1,,
9021020521999000,Servicecenter Äppelbo,60.477366,14.072878,1,,
9021020523000000,Örsjövägskälet,61.105801,12.873301,1,,
9021020523001000,Stöten Hotellet,61.266745,12.887839,1,,
9021020523002000,Varglyan,61.271681,12.873315,1,,
9021020523003000,Stöten infarten,61.274445,12.861612,1,,
9021020523004000,Transtrand bensinstationen,61.100127,13.309046,1,,
9021020523005000,Bersällvägen,61.141191,13.278582,1,,
9021020523006000,Sälen rondellen,61.148394,13.273454,1,,
9021020523007000,Närsjön,61.185209,12.880755,1,,
9021020523008000,Nymon,61.255930,12.844020,1,,
9021020523009000,Wasastugan Lindvallen,61.162823,13.199920,1,,
9021020523010000,Smågan,61.066769,13.482949,1,,
9021020523011000,Gränsbo,61.172074,12.754230,1,,
9021020523012000,Högfjällshotellet,61.157610,13.118003,1,,
9021020523014000,Lindvallen Snöcentret,61.155181,13.205494,1,,
9021020523015000,Rörbäcksnäs,61.128940,12.813754,1,,
9021020523016000,Kyrkan Rörbäcksnäs,61.133552,12.810912,1,,
9021020523017000,Lilla Moberget,61.175613,12.866628,1,,
9021020523018000,Stöten vsk,61.174522,12.891761,1,,
9021020523019000,Joänget,61.180501,12.959172,1,,
9021020523021000,Tandådalen Köpcentrum,61.180509,12.993915,1,,
9021020523022000,Tandåliden,61.181024,12.996212,1,,
9021020523023000,Kvillan,61.186578,13.020757,1,,
9021020523024000,Östra Gussjösätern,61.180357,13.046954,1,,
9021020523025000,Västra Färdkällan,61.173736,13.073993,1,,
9021020523026000,Gruvens fäbod,61.165639,13.099827,1,,
9021020523027000,Högfjällscenter,61.160685,13.110539,1,,
9021020523028000,Gammelgården Sälen,61.158118,13.133664,1,,
9021020523029000,Sälfjällstorget,61.165398,13.177531,1,,
9021020523030000,Gruven vsk,61.167643,13.094068,1,,
9021020523031000,Kyrkbyn Transtrand,61.091045,13.312683,1,,
9021020523032000,Norra Brändan,61.124581,13.279854,1,,
9021020523033000,Västra Långstrand,61.139183,13.269921,1,,
9021020523034000,Sälens skola,61.154355,13.266900,1,,
9021020523035000,Prins Lars väg,61.161772,13.262642,1,,
9021020523037000,Röen,61.171211,13.256081,1,,
9021020523038000,Osanden,61.190233,13.239698,1,,
9021020523039000,Lispasätra,61.198966,13.228678,1,,
9021020523040000,Gravendal,61.205282,13.225110,1,,
9021020523041000,Högstrand,61.233546,13.215639,1,,
9021020523042000,Östholsvägen,61.138617,13.279494,1,,
9021020523043000,Åsgårdarna,61.119175,13.291348,1,,
9021020523044000,Berga södra,61.102764,13.305990,1,,
9021020523045000,Fiskarheden busstn,61.070244,13.329923,1,,
9021020523046000,Kläppen,61.032044,13.339437,1,,
9021020523047000,Husvallgölen,61.489718,13.082924,1,,
9021020523048000,Sörsjön,61.411830,13.084131,1,,
9021020523049000,Baggbäcken,61.265436,13.185096,1,,
9021020523050000,Skärbäckstrand,61.273506,13.177559,1,,
9021020523051000,Fulunäs,61.308340,13.071432,1,,
9021020523053000,Sörsjön affären,61.410497,13.083498,1,,
9021020523054000,Sälen centrum,61.156713,13.265800,1,,
9021020523055000,Östra Långstrand,61.128578,13.284483,1,,
9021020523056000,Vörderås,61.096932,13.314946,1,,
9021020523057000,Tjärnheden,61.114603,13.292973,1,,
9021020523058000,Berga Vasaloppsstarten,61.109734,13.296904,1,,
9021020523059000,Transtrand Stinas kiosk,61.092896,13.318583,1,,
9021020523060000,Källan,61.084488,13.323053,1,,
9021020523061000,Glasmästeriet Fiskarheden,61.076466,13.326740,1,,
9021020523062000,Höknäs södra,61.046627,13.338063,1,,
9021020523063000,Fiskarheden södra,61.064019,13.332475,1,,
9021020523064000,Höknäs,61.057200,13.335406,1,,
9021020523065000,Gusjöbyn,61.037169,13.337123,1,,
9021020523066000,Knappstensvalla,60.857020,13.418408,1,,
9021020523067000,Folkets Park Bu,60.893676,13.392051,1,,
9021020523068000,Hantverkshuset Bu,60.890234,13.398880,1,,
9021020523069000,Ytternäs,60.882139,13.406141,1,,
9021020523070000,Åkra,60.928255,13.355423,1,,
9021020523071000,Risätra skola,60.880278,13.401988,1,,
9021020523072000,Äråbadet,60.905367,13.369717,1,,
9021020523073000,Biskopsbyn,60.916154,13.365426,1,,
9021020523074000,Boisbacken,60.912389,13.367761,1,,
9021020523075000,Västra Tandö,60.844005,13.409535,1,,
9021020523076000,Mosätravägen,60.882580,13.385677,1,,
9021020523077000,Ungärde skola Lima,60.937698,13.359716,1,,
9021020523078000,Sörnäs,60.983000,13.330027,1,,
9021020523079000,Södra Hjulslätt,60.987821,13.325086,1,,
9021020523080000,Norra Hjulslätt,60.991349,13.321668,1,,
9021020523081000,Hammarsbyn,60.994606,13.318585,1,,
9021020523082000,Norra Hammarsbyn,60.996946,13.314501,1,,
9021020523083000,Blästheden,61.000466,13.311618,1,,
9021020523084000,Gråheden,61.003376,13.330936,1,,
9021020523085000,Norränge,60.996919,13.332086,1,,
9021020523086000,Risheden,60.989045,13.335536,1,,
9021020523087000,Torgåsbron,60.981127,13.335560,1,,
9021020523088000,Torgåsgården,60.974570,13.340568,1,,
9021020523089000,Mon,60.966833,13.344926,1,,
9021020523090000,Mojanisbacken,60.959249,13.346786,1,,
9021020523091000,Skålmo,60.950318,13.353338,1,,
9021020523092000,Skålmo södra,60.942321,13.358697,1,,
9021020523093000,Skålmogården,60.940987,13.357433,1,,
9021020523094000,Lima Ungärde,60.936723,13.360418,1,,
9021020523095000,Sörbäcken,60.925570,13.367795,1,,
9021020523096000,Bygärdet,60.931950,13.363857,1,,
9021020523097000,Bergsvalla,60.918140,13.373453,1,,
9021020523098000,Limedsforsen Folkets hus,60.903540,13.382908,1,,
9021020523099000,Pensionatet Limedsforsen,60.896187,13.388138,1,,
9021020523100000,Bu norra,60.891944,13.396116,1,,
9021020523101000,Bu södra,60.887797,13.402721,1,,
9021020523102000,Risätra,60.878542,13.406816,1,,
9021020523103000,Rengården,60.875769,13.407393,1,,
9021020523104000,Berisgården,60.868985,13.411640,1,,
9021020523105000,Östra Lillmon,60.861483,13.415442,1,,
9021020523106000,Östra Ofors,60.852777,13.420123,1,,
9021020523107000,Tandö Rv 66,60.844217,13.416401,1,,
9021020523108000,Hånäsvägen,60.729932,13.821046,1,,
9021020523109000,Lännviken,60.762778,13.844083,1,,
9021020523110000,Fallet,60.808031,13.848581,1,,
9021020523111000,Bel-Nilsgatan Öje,60.808974,13.851059,1,,
9021020523112000,Öje centrumhuset,60.808957,13.860717,1,,
9021020523113000,Öje östra,60.812313,13.874334,1,,
9021020523114000,Grimsåker södra,60.657326,13.741782,1,,
9021020523115000,Grimsåker norra,60.660687,13.740835,1,,
9021020523116000,Norra Mon,60.701268,13.684052,1,,
9021020523117000,Kyrkskolan Malung,60.670731,13.722734,1,,
9021020523118000,Mellanmon,60.700129,13.689292,1,,
9021020523119000,Torpet,60.696735,13.694954,1,,
9021020523120000,Hallsjöviken,60.694944,13.699778,1,,
9021020523121000,Fågeljosef,60.693577,13.703072,1,,
9021020523122000,Gamla tryckeriet,60.691991,13.704970,1,,
9021020523123000,Västra Utsjö vändplan,60.633835,13.735096,1,,
9021020523124000,Västra Utsjö,60.637639,13.733133,1,,
9021020523125000,Ullbacken,60.647150,13.731681,1,,
9021020523126000,Böle södra,60.652682,13.725985,1,,
9021020523127000,Grop Erik,60.655423,13.723284,1,,
9021020523128000,Böle norra,60.659011,13.720766,1,,
9021020523129000,Flygplatsvägen,60.663351,13.716405,1,,
9021020523130000,Ridhusvägen,60.666805,13.712778,1,,
9021020523131000,Stebacksvägen,60.669833,13.708922,1,,
9021020523132000,Länkvägen,60.673601,13.705309,1,,
9021020523133000,Öjesgården,60.671784,13.707386,1,,
9021020523134000,Josvägen,60.673820,13.713604,1,,
9021020523135000,Bengtsvägen,60.678083,13.710581,1,,
9021020523136000,Hole,60.679119,13.705682,1,,
9021020523137000,Skolgatan Malung,60.684145,13.719340,1,,
9021020523139000,Lillmoskolan,60.687844,13.706174,1,,
9021020523140000,Blomsterbäcksskolan,60.686400,13.715990,1,,
9021020523141000,Brandstationen Malung,60.690849,13.727273,1,,
9021020523142000,Grimsåker,60.664724,13.740631,1,,
9021020523143000,Örarbäckheden,60.606763,13.805872,1,,
9021020523144000,Edet,60.602549,13.810460,1,,
9021020523145000,Jofa-hallen,60.691961,13.708231,1,,
9021020523146000,Blomstervägen,60.687351,13.726895,1,,
9021020523147000,Hängbron,60.674880,13.719958,1,,
9021020523148000,Gärdevägen,60.674243,13.726899,1,,
9021020523149000,Skinnarvallen,60.676212,13.728840,1,,
9021020523150000,Malungs Gymnasieskola,60.681241,13.725459,1,,
9021020523151000,Rosengrens,60.677986,13.726877,1,,
9021020523157000,Västra Fors vsk,60.724184,13.547530,1,,
9021020523158000,Mosjön,60.702804,13.676752,1,,
9021020523159000,Dammen,60.730512,13.518365,1,,
9021020523160000,Ällingåvägen,60.730433,13.528986,1,,
9021020523161000,Västra Fors Bystugan,60.729893,13.534195,1,,
9021020523162000,Jönsgården,60.725861,13.540547,1,,
9021020523163000,Perjosvägen,60.728762,13.549628,1,,
9021020523164000,Bonden,60.721727,13.551185,1,,
9021020523165000,Klunka,60.719712,13.559244,1,,
9021020523166000,Gärdås,60.712180,13.591937,1,,
9021020523167000,Hindrik-Johan,60.709040,13.597778,1,,
9021020523168000,Petsjövägen,60.705108,13.607335,1,,
9021020523169000,Jägra,60.703756,13.616092,1,,
9021020523170000,Falla,60.702270,13.626268,1,,
9021020523171000,Kvarnarna,60.701329,13.630517,1,,
9021020523172000,Idbäcks skola,60.700066,13.648479,1,,
9021020523173000,Idbäck,60.698812,13.658380,1,,
9021020523174000,Malmens,60.696826,13.666681,1,,
9021020523175000,Gamla Konsum Idbäck,60.695196,13.670314,1,,
9021020523176000,Hära,60.691759,13.677198,1,,
9021020523177000,Rommarheden,60.687586,13.685246,1,,
9021020523178000,Magnilvägen,60.679749,13.702355,1,,
9021020523179000,Jommovägen,60.739267,13.549138,1,,
9021020523180000,Malungsfors Rv 66,60.734664,13.557310,1,,
9021020523181000,Östra Fors,60.732041,13.565258,1,,
9021020523182000,Annikaholen,60.720383,13.595560,1,,
9021020523183000,Backen,60.716827,13.605032,1,,
9021020523184000,Stationsvägen Vallerås,60.712968,13.622162,1,,
9021020523185000,Beriholen,60.712275,13.628934,1,,
9021020523186000,Valla,60.710596,13.638951,1,,
9021020523187000,Vallerås,60.707646,13.650591,1,,
9021020523188000,Vallerås turistgård,60.706439,13.656488,1,,
9021020523189000,Vallerås södra,60.704477,13.667399,1,,
9021020523190000,Torsjonasriset,60.704345,13.678243,1,,
9021020523191000,Lybergsvägen,60.701422,13.690397,1,,
9021020523192000,Mobäcken,60.692959,13.706271,1,,
9021020523193000,Dalatrafiks bussdepå Malung,60.688893,13.717531,1,,
9021020523194000,Vårdcentralen Malung,60.684810,13.718821,1,,
9021020523195000,Malung centrum,60.683697,13.710802,1,,
9021020523196000,Yttermalung gamla stationen,60.579735,13.823281,1,,
9021020523197000,Holarna,60.675714,13.733173,1,,
9021020523198000,Folkhögskolan Malung,60.670412,13.736936,1,,
9021020523199000,Kyrkan Malung,60.666721,13.740036,1,,
9021020523200000,Grimsåker E16,60.657793,13.740087,1,,
9021020523201000,Östra Utsjö Skolan,60.647865,13.741573,1,,
9021020523202000,Östra Utsjö E16,60.641110,13.741942,1,,
9021020523203000,Bondpä östra Utsjö,60.637038,13.745118,1,,
9021020523204000,Lugnet,60.625264,13.761831,1,,
9021020523205000,Olla,60.594999,13.817362,1,,
9021020523206000,Kvarnholen,60.589533,13.826550,1,,
9021020523207000,Bussupmyren,60.583952,13.827339,1,,
9021020523208000,Yttermalung E16,60.577721,13.826744,1,,
9021020523209000,Bjuråker,60.573678,13.831388,1,,
9021020523210000,Kerstorp,60.570237,13.836961,1,,
9021020523211000,Skinnargatan,60.689893,13.717759,1,,
9021020523212000,Albacken,60.692427,13.713347,1,,
9021020523214000,Hundfjället hotellet,61.178002,12.965423,1,,
9021020523215000,Stöavägen,61.270049,12.852119,1,,
9021020523216000,Sälsätern,61.163985,13.191757,1,,
9021020523217000,Tandådalen Fjällkyrkan,61.177485,12.993998,1,,
9021020523218000,Berga Gamla järnvägsstationen,61.106929,13.302544,1,,
9021020523219000,Lundbacken,60.911453,13.379559,1,,
9021020523220000,Orrmyrvägen,60.687047,13.721825,1,,
9021020523221000,Åkra norra,60.935157,13.348913,1,,
9021020523222000,Hålgatan,60.887283,13.401056,1,,
9021020523223000,Södra Brändan,61.097934,13.304573,1,,
9021020523224000,Östra Ärnäs södra,60.905903,13.380479,1,,
9021020523225000,Östra Ärnäs norra,60.908181,13.378352,1,,
9021020523226000,Sörsjön södra,61.402958,13.081457,1,,
9021020523227000,Hismovägen,60.696889,13.698992,1,,
9021020523229000,Skäggheden,60.953172,13.337535,1,,
9021020523230000,Östensbo,61.245173,13.212297,1,,
9021020523231000,Dansande paret,60.688664,13.725309,1,,
9021020523232000,Kittarna,60.689959,13.731835,1,,
9021020523233000,Heden,60.867964,13.400723,1,,
9021020523234000,Malungs ishall,60.682263,13.729402,1,,
9021020523235000,Norrsjön,61.421384,13.086410,1,,
9021020523237000,Sörnäs norra,60.984347,13.327557,1,,
9021020523238000,Digernäs,61.181695,13.240690,1,,
9021020523239000,Bergsätra gård,61.193374,13.225489,1,,
9021020523240000,Jossätra,61.204039,13.215980,1,,
9021020523241000,Sälströmsvägen,61.213608,13.216311,1,,
9021020523242000,Horrmundsgården,61.305919,13.161345,1,,
9021020523243000,Kraftstationen Horrmund,61.313247,13.160018,1,,
9021020523244000,Hästnäs,61.315123,13.188697,1,,
9021020523245000,Säternäs,61.316487,13.207336,1,,
9021020523246000,Vervnäs,61.328392,13.217150,1,,
9021020523247000,Storbricksnäs,61.344047,13.214623,1,,
9021020523248000,Olnispagården,61.158360,13.257398,1,,
9021020523249000,Västsidan,61.165711,13.252956,1,,
9021020523250000,Svarthammaren,61.006114,13.292310,1,,
9021020523251000,Bolheden,61.052883,13.328630,1,,
9021020523253000,Renvägen,61.177087,13.056370,1,,
9021020523254000,Siktån,61.138036,12.807209,1,,
9021020523255000,Knutsbovägen,60.896464,13.390301,1,,
9021020523256000,Näbbgårdsvägen,60.894270,13.393674,1,,
9021020523263000,Ärnäs industriområde,60.899641,13.375813,1,,
9021020523264000,Transtrands kyrka,61.088528,13.312547,1,,
9021020523265000,Kyrkbyn Södra,61.084512,13.312863,1,,
9021020523266000,Mornäs norra,61.080720,13.314682,1,,
9021020523267000,Mornäs mitt,61.078028,13.316692,1,,
9021020523268000,Mornäs södra,61.074583,13.318779,1,,
9021020523269000,Norra Heden,60.890627,13.381806,1,,
9021020523271000,Södra heden,60.865627,13.403624,1,,
9021020523273000,Gamla banvallen,60.851381,13.419915,1,,
9021020523275000,Rörbäcksnäs skolan,61.132246,12.812568,1,,
9021020523277000,Fejmliden,61.007617,13.284349,1,,
9021020523278000,Linjovägen,60.689729,13.707883,1,,
9021020523279000,Tjäderåsvägen,61.153790,13.215364,1,,
9021020523280000,Sörnäs södra,60.983129,13.329721,1,,
9021020523281000,Risätra Rv 66,60.881838,13.400876,1,,
9021020523282000,Limedsforsen Rv 66,60.902096,13.385488,1,,
9021020523283000,Slättnäset,60.937450,13.988142,1,,
9021020523285000,Södra Brändan 126,61.095700,13.307067,1,,
9021020523286000,Västansjö,60.974783,13.328486,1,,
9021020523287000,Åkra Södra,60.925070,13.358029,1,,
9021020523288000,Heden 14,60.869770,13.399280,1,,
9021020523289000,Heden mitt,60.876210,13.390912,1,,
9021020523290000,Västra Långstrand södra,61.133135,13.275383,1,,
9021020523291000,Norra Brändan Södra,61.115861,13.284578,1,,
9021020523292000,Norra brändan mitt,61.126942,13.277920,1,,
9021020523990000,Flexområde Lisskogsåsen,60.584246,13.557082,1,,
9021020523991000,Flexområde Tyngsjö,60.399095,13.835444,1,,
9021020523993000,Flexområde Sälenfjällen,61.270113,12.852178,1,,
9021020523997000,Skinnarbadet skb,60.687137,13.704609,1,,
9021020523998000,Malungsfors skola,60.732958,13.553560,1,,
9021020523999000,Jofahallen skolbusshållplats,60.693211,13.706594,1,,
9021020526000000,Bäckan södra,60.550690,15.175349,1,,
9021020526001000,Anslagstavlan Mockfjärd,60.494638,14.953779,1,,
9021020526002000,Källbäcken,60.449955,14.754848,1,,
9021020526003000,Handbacken,60.458554,14.693975,1,,
9021020526004000,Björboskolan,60.460022,14.711955,1,,
9021020526005000,Holsåker,60.506367,14.794174,1,,
9021020526006000,Myrholen,60.480613,14.934905,1,,
9021020526007000,Västanbäcken,60.490245,14.944762,1,,
9021020526008000,Ersholen,60.492790,14.952572,1,,
9021020526009000,Nysäl södra,60.515794,15.030444,1,,
9021020526010000,Mockfjärdsskolan E16,60.509816,14.965157,1,,
9021020526011000,Lindbyns kraftstn,60.506344,14.993768,1,,
9021020526012000,Mockfjärdsskolan,60.509470,14.965913,1,,
9021020526013000,Källan Björbo,60.465956,14.684996,1,,
9021020526014000,Vällingbyvägen Björbo,60.464173,14.692929,1,,
9021020526015000,Holgattu,60.460533,14.701569,1,,
9021020526016000,Rimgattu Björbo,60.459155,14.708058,1,,
9021020526017000,Björbo brandstationen,60.457732,14.718920,1,,
9021020526019000,Björbo affären,60.456253,14.728565,1,,
9021020526020000,Gybäcksholan,60.457533,14.739218,1,,
9021020526021000,Forsgärdet,60.498390,14.783942,1,,
9021020526022000,Strandbacksvägen Dala-Floda,60.507033,14.790841,1,,
9021020526023000,Dala-Floda E16,60.509440,14.801778,1,,
9021020526024000,Syrholns skola E16,60.509955,14.809408,1,,
9021020526025000,Kamholsvägen Dala-Floda,60.509342,14.816344,1,,
9021020526026000,Bäckbyn,60.507648,14.832395,1,,
9021020526027000,Svedjebyn,60.506888,14.839043,1,,
9021020526028000,Lillstupet,60.495733,14.920781,1,,
9021020526029000,Borgsheden,60.497669,14.932646,1,,
9021020526030000,Högberget,60.504273,14.948848,1,,
9021020526031000,Färmsnäs,60.519851,14.985418,1,,
9021020526032000,Rista E16,60.530380,15.024440,1,,
9021020526033000,Mockfjärd E16,60.507609,14.961101,1,,
9021020526034000,Backvägen Mockfjärd,60.501367,14.970399,1,,
9021020526035000,Mockfjärd affären,60.497816,14.962466,1,,
9021020526036000,Mockfjärd gamla stationen,60.495946,14.957729,1,,
9021020526037000,Industrivägen Mockfjärd,60.493867,14.960931,1,,
9021020526038000,Ridhuset Mockfjärd,60.494714,14.967222,1,,
9021020526039000,Dalaträ Mockfjärd,60.495900,14.970321,1,,
9021020526040000,Backen Mockfjärd,60.502181,14.975064,1,,
9021020526041000,Stängslen,60.505741,15.008234,1,,
9021020526042000,Brötjärna,60.505315,15.018100,1,,
9021020526043000,Nysäl,60.517295,15.035570,1,,
9021020526044000,Djupsjön,60.599934,15.066329,1,,
9021020526045000,Gröntuv södra,60.583090,15.117158,1,,
9021020526046000,Bäckgårdarna,60.585714,15.100627,1,,
9021020526047000,Larsgårdarna,60.589590,15.095196,1,,
9021020526048000,Moje södra,60.595564,15.089626,1,,
9021020526049000,Moje norra,60.598253,15.083963,1,,
9021020526050000,Övre Tjärna,60.602512,15.072413,1,,
9021020526051000,Fix,60.621896,15.055031,1,,
9021020526052000,Lekparken,60.618479,15.052262,1,,
9021020526053000,Dunkarbacken,60.557993,15.084369,1,,
9021020526054000,Bomsarvet,60.563203,15.088647,1,,
9021020526056000,Flottbron,60.586418,15.069685,1,,
9021020526059000,Djurås resecentrum,60.560119,15.137774,1,,
9021020526060000,Djuråsskolan,60.558169,15.133713,1,,
9021020526061000,Komtillmåtta,60.564088,15.099767,1,,
9021020526062000,Gruvan,60.571109,15.090022,1,,
9021020526063000,Åsarna,60.584478,15.045419,1,,
9021020526064000,Ljungbergsgårdarna,60.533776,15.174439,1,,
9021020526065000,Gräv Brända,60.611874,15.047558,1,,
9021020526066000,Forsbackan,60.532298,15.100524,1,,
9021020526067000,Bäckan,60.551275,15.163573,1,,
9021020526068000,Gagnefs Gråda,60.604624,15.039395,1,,
9021020526069000,Västerfors norra,60.588074,15.016340,1,,
9021020526070000,Västerfors södra,60.585255,15.020624,1,,
9021020526071000,Nordbäck,60.581322,15.055499,1,,
9021020526072000,Östtjärna,60.566275,15.094031,1,,
9021020526073000,Gräv norra,60.620627,15.055179,1,,
9021020526074000,Gräv södra,60.611344,15.049899,1,,
9021020526075000,Nordbo Gagnef,60.600882,15.067348,1,,
9021020526076000,Djura vsk rv 70,60.604857,15.052671,1,,
9021020526077000,Grådakorset,60.604123,15.048215,1,,
9021020526078000,Gärde,60.602474,15.048692,1,,
9021020526079000,Kvistlokan,60.599460,15.053746,1,,
9021020526080000,Nedre Tjärna,60.596031,15.053679,1,,
9021020526081000,Kyrkskolan,60.591442,15.059626,1,,
9021020526082000,Gagnefs kyrkby,60.590971,15.066087,1,,
9021020526083000,Flottbrovägen Gagnef,60.591380,15.071187,1,,
9021020526084000,Rännarhedsvägen Gagnef,60.593753,15.074939,1,,
9021020526085000,Gagnef station,60.598294,15.081480,1,,
9021020526086000,Gagnef Ica,60.595456,15.081197,1,,
9021020526088000,Hansgårdarna,60.588171,15.090876,1,,
9021020526089000,Gröntuv,60.583032,15.103532,1,,
9021020526090000,Korsbacken,60.581248,15.109919,1,,
9021020526091000,Prosgårdarna,60.574855,15.123234,1,,
9021020526092000,Ällheden,60.521954,15.042697,1,,
9021020526093000,By,60.526948,15.058370,1,,
9021020526094000,Björka,60.531573,15.080786,1,,
9021020526095000,Björkagården,60.533129,15.110078,1,,
9021020526096000,Djuråsvägen,60.533275,15.130659,1,,
9021020526097000,Myrheden,60.532474,15.139164,1,,
9021020526098000,Arvslindan,60.532546,15.163051,1,,
9021020526099000,Backarna,60.533199,15.195125,1,,
9021020526100000,Bäsna gamla affären,60.536402,15.202616,1,,
9021020526101000,Barkargattu Bäsna,60.540651,15.212548,1,,
9021020526102000,Mörtbacken,60.542568,15.222863,1,,
9021020526103000,Bodarna,60.541365,15.127903,1,,
9021020526104000,Mon,60.538293,15.052898,1,,
9021020526105000,Lindan,60.550463,15.084482,1,,
9021020526106000,Mjälgen,60.554258,15.109451,1,,
9021020526107000,Vårdcentralen Djurås,60.552799,15.127736,1,,
9021020526108000,Älvuddsvägen,60.557075,15.121467,1,,
9021020526109000,Näset Djurås,60.558491,15.113999,1,,
9021020526110000,Täktberget,60.555586,15.147556,1,,
9021020526112000,Österfors,60.599809,15.031541,1,,
9021020526113000,Kyrkskolan Gagnef,60.591835,15.057664,1,,
9021020526114000,Gamla landsvägen Sifferbo,60.553363,15.230706,1,,
9021020526115000,Djurmovägen Djurmo,60.550800,15.183448,1,,
9021020526116000,Djurmo E16,60.551473,15.192293,1,,
9021020526117000,Djurmoskolan,60.552146,15.204127,1,,
9021020526118000,Sifferbo E16,60.552322,15.230743,1,,
9021020526119000,Nordåker vsk,60.578043,15.080930,1,,
9021020526120000,Kyrkan Mockfjärd,60.499597,14.964394,1,,
9021020526121000,Vikåkersvägen,60.550791,15.155354,1,,
9021020526122000,Täktbergsvägen,60.552896,15.147200,1,,
9021020526123000,Djurås centrum,60.560241,15.131573,1,,
9021020526124000,Djuråsbyvägen,60.552697,15.143213,1,,
9021020526125000,Nissvägen,60.552589,15.139588,1,,
9021020526126000,Östra Prosgårdarna,60.576535,15.125324,1,,
9021020526127000,Hampgårdarna,60.582948,15.129786,1,,
9021020526130000,Bäckarna,60.553276,15.171927,1,,
9021020526131000,Gagnefsbyn,60.577958,15.068747,1,,
9021020526132000,Djurås by,60.547671,15.148746,1,,
9021020526133000,Borgsheden skolhpl,60.497103,14.928367,1,,
9021020526134000,Skärpvägen,60.575957,15.083640,1,,
9021020526135000,Bodarna norra,60.546132,15.128040,1,,
9021020526136000,Björbo gamla station,60.453458,14.729221,1,,
9021020526137000,Dalsängsvägen,60.454143,14.743046,1,,
9021020526138000,Trollkrogen,60.623898,15.056647,1,,
9021020526139000,Hagenvägen Arvslindan,60.532783,15.156262,1,,
9021020526140000,Djurmoskolan skolbusshållplats,60.550967,15.204377,1,,
9021020526141000,Syrholns skola,60.509625,14.809727,1,,
9021020526142000,Skolvägen Mockfjärd,60.507613,14.961701,1,,
9021020526143000,Hagvägen,60.500603,14.821633,1,,
9021020526144000,Hembygdsgården Dala-Floda,60.506426,14.803146,1,,
9021020526145000,Grevens väg,60.494872,14.790985,1,,
9021020526146000,Byvägen Gagnef,60.580514,15.065095,1,,
9021020526147000,Saras väg,60.496272,14.793306,1,,
9021020526148000,Sunnanbyn,60.506310,14.812869,1,,
9021020526149000,Rista Timmermansvägen,60.532097,15.029662,1,,
9021020526150000,Flexhållplats Bäsna skolan,60.535340,15.200076,1,,
9021020526151000,Lissforsvägen,60.504661,14.833886,1,,
9021020526152000,Holvägen,60.510278,14.789101,1,,
9021020526153000,Myrheden skolbusshållplats,60.532894,15.138882,1,,
9021020526154000,Myrholen Norra,60.486053,14.935123,1,,
9021020526155000,Larsvedsbacken,60.576231,15.074568,1,,
9021020526156000,Bystugan Brötjärna,60.504811,15.018649,1,,
9021020526157000,Mon skolbusshållplats,60.539685,15.050615,1,,
9021020526997000,Hagen,60.492849,14.835131,1,,
9021020526998000,Sälje,60.495182,14.846306,1,,
9021020526999000,Mossel,60.517676,14.773119,1,,
9021020529000000,Insjön station,60.675448,15.095681,1,,
9021020529002000,Bragehall,60.791691,15.036791,1,,
9021020529003000,Mon södra,60.786705,14.885599,1,,
9021020529004000,Hjulbäck västra,60.793862,14.905998,1,,
9021020529005000,Kvarnen Hjulbäck,60.795329,14.922145,1,,
9021020529006000,Gatu,60.832469,15.068115,1,,
9021020529007000,Fricken,60.833569,15.051156,1,,
9021020529008000,Stenbyn,60.830958,15.038624,1,,
9021020529009000,Stenbyn västra,60.832027,15.031115,1,,
9021020529010000,Alvik gamla pensionatet,60.746314,14.880678,1,,
9021020529011000,Räcksälbackarna,60.753171,14.911137,1,,
9021020529012000,Lindblads,60.828021,14.992571,1,,
9021020529013000,Opplimen,60.798438,15.052222,1,,
9021020529014000,Siljansnäs Äreporten,60.780633,14.857165,1,,
9021020529015000,Sätra skolbusshållplats,60.798207,15.051052,1,,
9021020529016000,Nybingsbo,60.744202,14.736619,1,,
9021020529017000,Lundbjörken,60.783747,14.702237,1,,
9021020529018000,Olsnäs,60.781731,14.777205,1,,
9021020529019000,"Höglunds, S Bergsäng",60.807270,15.080003,1,,
9021020529020000,Kvarnängsvägen,60.745070,14.872040,1,,
9021020529021000,Nissesgattu,60.745674,14.865990,1,,
9021020529022000,Dunkholsvägen,60.747690,14.861750,1,,
9021020529023000,Mackbergsvägen,60.749365,14.858657,1,,
9021020529024000,Morgattu,60.750967,14.854923,1,,
9021020529025000,Backen,60.756035,14.848142,1,,
9021020529026000,Majstången Almo,60.757187,14.841073,1,,
9021020529027000,Almo,60.759831,14.840022,1,,
9021020529028000,Engvalls Almo,60.762160,14.839319,1,,
9021020529029000,Olsnäsvägen Siljansnäs,60.772363,14.841572,1,,
9021020529030000,Hallevi Siljansnäs,60.775096,14.850317,1,,
9021020529031000,Nosängsvägen Siljansnäs,60.778983,14.858104,1,,
9021020529032000,Stensveden,60.772185,14.885804,1,,
9021020529033000,Fjärdgattu,60.771373,14.876157,1,,
9021020529034000,Bortasgattu Siljansnäs,60.771978,14.868890,1,,
9021020529035000,Kirolsvägen Siljansnäs,60.773564,14.867871,1,,
9021020529036000,Siljansnäs kiosken,60.776198,14.864656,1,,
9021020529037000,Siljansnäs kyrkan,60.777234,14.861322,1,,
9021020529038000,Björkbacken Siljansnäs,60.778476,14.861872,1,,
9021020529039000,Nimo,60.780873,14.860700,1,,
9021020529040000,Björkberget,60.782677,14.863860,1,,
9021020529041000,Mon Hjulbäck,60.788048,14.892354,1,,
9021020529042000,Skjutbanan,60.796064,14.907773,1,,
9021020529043000,Gummesgattu,60.796929,14.917143,1,,
9021020529044000,Hjulbäck södra,60.791178,14.922205,1,,
9021020529045000,Tasbäck,60.771718,14.892443,1,,
9021020529046000,Tasbäck östra,60.771321,14.898088,1,,
9021020529047000,Yrnäs,60.770682,14.904391,1,,
9021020529048000,Hansgattu,60.769569,14.908450,1,,
9021020529049000,Gassarvet,60.767945,14.911899,1,,
9021020529050000,Juvasberg,60.765300,14.917624,1,,
9021020529051000,Fornby,60.763270,14.927670,1,,
9021020529052000,Gyllene Hornet Tällberg,60.826023,15.001261,1,,
9021020529053000,Tällberg skolan,60.823614,15.009005,1,,
9021020529054000,Tällberg station,60.817963,15.018720,1,,
9021020529055000,Sjugare,60.802408,15.060927,1,,
9021020529056000,Ryttarmyrvägen,60.803853,15.062455,1,,
9021020529057000,Bergsängskorset,60.806543,15.063605,1,,
9021020529058000,Norr Bergsäng,60.812131,15.064615,1,,
9021020529059000,Svältåkersvägen,60.809150,15.071022,1,,
9021020529060000,Risholn,60.788464,15.200606,1,,
9021020529061000,Västgärds,60.806251,15.075084,1,,
9021020529062000,Largattu,60.807564,15.085498,1,,
9021020529063000,Norr Lindberg,60.808609,15.119628,1,,
9021020529064000,Missionshuset Norr Lindberg,60.806211,15.114040,1,,
9021020529065000,Lindbergs bystuga,60.802347,15.114941,1,,
9021020529066000,Söder Lindberg,60.797483,15.121070,1,,
9021020529068000,Björkberg vsk,60.777777,15.078991,1,,
9021020529069000,Torrberg,60.778333,15.067442,1,,
9021020529070000,Majstången Torrberg,60.778011,15.063605,1,,
9021020529071000,Hyttängsvägen,60.782784,15.029864,1,,
9021020529072000,Leksboda rv 70,60.780558,15.023750,1,,
9021020529073000,Leksboda,60.780424,15.028489,1,,
9021020529074000,Sätra,60.791672,15.041446,1,,
9021020529075000,Bodlindor,60.793047,15.048015,1,,
9021020529076000,Västberg,60.805632,15.050032,1,,
9021020529077000,Tällbergsporten,60.817498,15.046959,1,,
9021020529078000,Kullsbjörken rv 70,60.828619,15.073149,1,,
9021020529079000,Kullsbjörken Norra,60.831528,15.076557,1,,
9021020529080000,Majstången Kullsbjörken,60.832988,15.074465,1,,
9021020529081000,Bondkroken,60.832737,15.025086,1,,
9021020529082000,Östanhol,60.833571,15.021811,1,,
9021020529083000,Hagmans,60.834339,15.018134,1,,
9021020529084000,Vinters Laknäs,60.836351,15.013855,1,,
9021020529085000,Månkvägen,60.837920,15.007490,1,,
9021020529086000,Majstången Laknäs,60.837903,15.003132,1,,
9021020529087000,Kandells Laknäs,60.836229,14.997823,1,,
9021020529088000,Fjärsman Laknäs,60.834158,14.993684,1,,
9021020529089000,Kastbergs,60.830779,14.992979,1,,
9021020529090000,Tällberg centrum,60.822263,14.991743,1,,
9021020529091000,Dalecarlia,60.820655,14.987106,1,,
9021020529092000,Sandåsarna,60.803208,14.979718,1,,
9021020529093000,Björklunds,60.799686,14.974041,1,,
9021020529094000,Olars,60.797199,14.973169,1,,
9021020529095000,Hjortnäs,60.794168,14.969997,1,,
9021020529096000,Presgattu,60.789302,14.967563,1,,
9021020529097000,Hjortnäs södra,60.786894,14.967185,1,,
9021020529098000,Sunnanäng,60.783390,14.968011,1,,
9021020529099000,Tägtströms,60.780228,14.966084,1,,
9021020529100000,Långbacken,60.775650,14.966093,1,,
9021020529101000,Hjortnäsheden,60.770772,14.970974,1,,
9021020529102000,Knutsgårdar,60.806561,15.090095,1,,
9021020529103000,Höglundsgården,60.792955,15.124518,1,,
9021020529104000,Risa,60.782267,15.108187,1,,
9021020529107000,Villagatan,60.733631,14.997013,1,,
9021020529108000,Norsbro,60.731012,15.013904,1,,
9021020529109000,Vargnäs vsk,60.763926,15.031237,1,,
9021020529111000,Knubbgatan,60.729913,15.007095,1,,
9021020529112000,Hjortnäsheden södra,60.767941,14.973249,1,,
9021020529113000,Gärde skola,60.700543,15.046715,1,,
9021020529114000,Siljansnäs skola,60.776900,14.862396,1,,
9021020529115000,Ål-kilen skolbuss,60.633365,15.056445,1,,
9021020529117000,Almberg,60.742718,15.165515,1,,
9021020529118000,Insjön skolan,60.682961,15.099139,1,,
9021020529119000,Tibble södra,60.727692,15.030901,1,,
9021020529120000,Stationsgatan,60.731079,15.004060,1,,
9021020529121000,Krökbacken norra,60.760902,15.023669,1,,
9021020529122000,Back Hans,60.775389,15.064060,1,,
9021020529123000,Saras,60.598439,15.000162,1,,
9021020529124000,Mases,60.602855,15.002425,1,,
9021020529125000,Åbacken,60.607597,15.002288,1,,
9021020529126000,Kråkbodarna,60.670146,14.917129,1,,
9021020529127000,Åkersbodarna nedre,60.687742,14.956526,1,,
9021020529128000,Hedby,60.593411,14.970631,1,,
9021020529129000,Heden,60.698492,14.974195,1,,
9021020529131000,Skeberg Backen,60.636056,14.895536,1,,
9021020529132000,Östanmor,60.640067,14.916733,1,,
9021020529133000,Åkerö skola,60.723450,14.998021,1,,
9021020529134000,Tunsta,60.678734,15.083221,1,,
9021020529136000,Hedly,60.724721,14.956851,1,,
9021020529137000,Insjön Centrum,60.674482,15.092812,1,,
9021020529138000,Clasparken Insjön,60.678196,15.095950,1,,
9021020529139000,Villavägen,60.679617,15.093211,1,,
9021020529142000,Insjöns Sågverk,60.683072,15.079711,1,,
9021020529143000,Norsgatan,60.730383,14.995684,1,,
9021020529144000,Västannor,60.691550,15.053865,1,,
9021020529145000,Smedby,60.693286,15.050603,1,,
9021020529146000,Hagen,60.696714,15.049616,1,,
9021020529147000,Banerskolan,60.698151,15.049893,1,,
9021020529148000,Majstången Häradsbygden,60.700020,15.047835,1,,
9021020529149000,Häradsbygden,60.702053,15.043878,1,,
9021020529150000,Mjälgenvägen,60.704150,15.041860,1,,
9021020529151000,Yttermo södra,60.711542,15.026445,1,,
9021020529152000,Yttermo torget,60.712527,15.021375,1,,
9021020529153000,Yttermo norra,60.714093,15.017554,1,,
9021020529154000,Rutebo,60.716267,15.014817,1,,
9021020529155000,Källberget,60.718094,15.011181,1,,
9021020529156000,Moskogen,60.719848,15.007931,1,,
9021020529157000,Edshult,60.723682,15.002266,1,,
9021020529158000,Övermovägen,60.726567,14.999921,1,,
9021020529159000,Fiskgatan,60.732516,14.993687,1,,
9021020529160000,Kilen,60.744502,15.194046,1,,
9021020529161000,Hoberg vsk,60.743920,15.180672,1,,
9021020529162000,Almberg vsk,60.740431,15.169740,1,,
9021020529163000,Hisvåla östra,60.729802,15.136953,1,,
9021020529164000,Hisvåla västra,60.727261,15.126927,1,,
9021020529165000,Rönnäs Hyttbron,60.703694,15.146863,1,,
9021020529166000,Stengattu,60.703144,15.142827,1,,
9021020529167000,Östra torget Rönnäs,60.703272,15.136864,1,,
9021020529168000,Bystugan Rönnäs,60.702554,15.133317,1,,
9021020529169000,Lerbergs torg Rönnäs,60.702113,15.125050,1,,
9021020529170000,Ekenstorg Rönnäs,60.703692,15.123204,1,,
9021020529171000,Brändollesvägen Rönnäs,60.705113,15.116801,1,,
9021020529172000,Berg södra,60.707802,15.097074,1,,
9021020529173000,Berg norra,60.709311,15.093945,1,,
9021020529174000,Dammänget,60.714061,15.090955,1,,
9021020529175000,Romma vsk,60.715920,15.087937,1,,
9021020529176000,Kockgattu,60.717422,15.083561,1,,
9021020529177000,Skvaltkvarn,60.718866,15.076622,1,,
9021020529178000,Öhrns,60.718574,15.072525,1,,
9021020529179000,Hälla,60.718240,15.068126,1,,
9021020529180000,Kattbäck,60.716502,15.062112,1,,
9021020529181000,Majstången Ullvi,60.713522,15.057189,1,,
9021020529182000,Helldens Ullvi,60.713646,15.052240,1,,
9021020529183000,Ullvi skolan,60.715273,15.046972,1,,
9021020529184000,Hanis,60.719462,15.039591,1,,
9021020529185000,Urdins,60.722085,15.038429,1,,
9021020529186000,Hembygdsgården Djura,60.610672,14.993557,1,,
9021020529187000,Tibble,60.727856,15.030631,1,,
9021020529188000,Servicehuset Tibble,60.731426,15.026320,1,,
9021020529189000,Limhagen,60.743729,15.000169,1,,
9021020529190000,Norra industriområdet Leksand,60.745744,15.002539,1,,
9021020529191000,Lima bystugan,60.750914,15.010754,1,,
9021020529192000,Lima,60.752961,15.013895,1,,
9021020529193000,Krökbacken,60.759079,15.020292,1,,
9021020529195000,Sommarland Leksand,60.753597,14.974520,1,,
9021020529196000,Orsandbaden Leksand,60.747907,14.978811,1,,
9021020529197000,Hjortnäsvägen,60.743831,14.981547,1,,
9021020529198000,Korstäppan,60.739999,14.986000,1,,
9021020529199000,Käringbergsvägen,60.738241,14.990536,1,,
9021020529200000,Vårdcentralen Leksand,60.738004,15.000478,1,,
9021020529201000,Lekattvägen,60.735495,14.995152,1,,
9021020529202000,Leksand resecentrum,60.734327,15.002311,1,,
9021020529203000,Sparbanksgatan,60.731453,14.996060,1,,
9021020529205000,Åkerövägen,60.726616,14.997666,1,,
9021020529206000,Skolvägen,60.723873,14.994528,1,,
9021020529207000,Nygårdsvägen,60.721130,14.992106,1,,
9021020529208000,Knubbvägen,60.717773,14.989085,1,,
9021020529209000,Sundsnäs norra,60.757045,14.942074,1,,
9021020529210000,Sundsnäs södra,60.751209,14.942341,1,,
9021020529211000,Grytnäs,60.744399,14.942047,1,,
9021020529212000,Grytnäs södra,60.741309,14.940315,1,,
9021020529213000,Hedlunds,60.738522,14.942334,1,,
9021020529214000,Iluvägen,60.735322,14.947130,1,,
9021020529215000,Västanviksbadet,60.731162,14.950651,1,,
9021020529216000,Majstången Västanvik,60.727262,14.952733,1,,
9021020529217000,Västanviks Folkhögskola,60.723743,14.958342,1,,
9021020529218000,Karlsarvet norra,60.721730,14.960768,1,,
9021020529219000,Karlsarvet,60.718708,14.965474,1,,
9021020529220000,Karlsarvet södra,60.715161,14.973682,1,,
9021020529221000,Källbacksvägen,60.712810,14.986995,1,,
9021020529222000,Storhedsvägen,60.702381,14.982527,1,,
9021020529223000,Styrsjöbo,60.703574,14.966583,1,,
9021020529224000,Heden Majstången,60.700045,14.977808,1,,
9021020529225000,Åkersbodarna,60.690354,14.960887,1,,
9021020529226000,Åkersbodarna övre,60.689093,14.963666,1,,
9021020529227000,Hästberg,60.681880,14.970708,1,,
9021020529228000,Rältlindor,60.650748,14.979083,1,,
9021020529229000,Jonheden,60.644609,14.993799,1,,
9021020529230000,Knutsgårdarna,60.642216,15.002550,1,,
9021020529231000,Rälta,60.634679,15.014104,1,,
9021020529232000,Djurheden,60.619979,15.006053,1,,
9021020529233000,Linds Djura,60.616294,15.005268,1,,
9021020529234000,Djura skolan,60.612895,15.004111,1,,
9021020529235000,Leksands Gråda,60.609338,15.024913,1,,
9021020529236000,Gråda kraftverk,60.609794,15.010962,1,,
9021020529237000,Djura Kafet,60.611128,15.002913,1,,
9021020529238000,Hedby Brända,60.591873,14.968736,1,,
9021020529239000,Hedby norra,60.597708,14.976050,1,,
9021020529240000,Fors,60.600330,15.001940,1,,
9021020529241000,Ål-kilen rv 70,60.633408,15.057669,1,,
9021020529244000,Hedgattu,60.808784,14.991920,1,,
9021020529245000,Rältagården,60.625634,15.006242,1,,
9021020529246000,Insjön Hjultorget,60.672467,15.088722,1,,
9021020529248000,Brittasvägen,60.679242,15.086851,1,,
9021020529249000,Insjön södra,60.670154,15.090749,1,,
9021020529250000,Leksand Rexbo,60.652854,15.286231,1,,
9021020529251000,Yttervägen,60.761504,14.972334,1,,
9021020529252000,Hoberg vsk,60.743764,15.185699,1,,
9021020529253000,Hackmora,60.726508,15.249839,1,,
9021020529254000,Bystugan Almo,60.753579,14.851746,1,,
9021020529255000,Berga Leksand,60.809433,15.129954,1,,
9021020529257000,Orrvägen,60.677281,15.127258,1,,
9021020529258000,Rönnäskorset,60.668273,15.153057,1,,
9021020529259000,Hemre Helgbo,60.662908,15.177818,1,,
9021020529260000,Helgbo,60.658328,15.202521,1,,
9021020529261000,Leksandshallen,60.734202,14.987596,1,,
9021020529262000,Leksand centrum,60.731130,14.997516,1,,
9021020529263000,Leksands strand skolhpl,60.749348,14.973823,1,,
9021020529265000,Pär Hansbodarna,60.724467,15.262023,1,,
9021020529266000,Sunknäsvägen,60.678953,15.120709,1,,
9021020529267000,Hanisvägen,60.675352,15.130812,1,,
9021020529268000,Brenäs byväg,60.672015,15.143834,1,,
9021020529269000,Parkgattu,60.786013,15.034265,1,,
9021020529270000,Excel Education,60.740706,14.982682,1,,
9021020529271000,Soltägtgården,60.803960,15.022958,1,,
9021020529272000,Kanngårdarna,60.606645,14.982905,1,,
9021020529273000,Räcksäl,60.752427,14.917897,1,,
9021020529274000,Skeberg Skålhol,60.630560,14.869106,1,,
9021020529275000,Lissollegattu,60.771367,14.859237,1,,
9021020529276000,Gropbacken,60.770813,14.868576,1,,
9021020529277000,Nedre Heden,60.673153,15.097744,1,,
9021020529278000,Knippboheden,60.667992,15.097840,1,,
9021020529279000,Helgbobadet,60.658518,15.206869,1,,
9021020529280000,Djura kyrkan,60.611422,15.000970,1,,
9021020529281000,Kilen vsk,60.744373,15.201162,1,,
9021020529282000,Klockarberg,60.733722,14.722578,1,,
9021020529283000,Plintsberg södra,60.807852,15.025362,1,,
9021020529284000,Plintsberg,60.811063,15.026717,1,,
9021020529285000,Issvedsgattu,60.785430,14.966994,1,,
9021020529286000,Ålängsvägen,60.817933,15.024344,1,,
9021020529287000,Timmervägen,60.680898,15.109652,1,,
9021020529291000,Ryttars,60.807097,15.110181,1,,
9021020529345000,Vattenverket Alvik,60.749346,14.890273,1,,
9021020531000000,Solberga norra skolbusshållplats,60.979390,15.224812,1,,
9021020531003000,Rättviksskolan,60.888434,15.120198,1,,
9021020531004000,Larses,61.148787,15.131926,1,,
9021020531006000,Oreparken,61.157228,15.130269,1,,
9021020531007000,Dalbyn södra,61.113336,15.163870,1,,
9021020531009000,Furudals skola,61.166607,15.148723,1,,
9021020531010000,Babbens garage Sörboda,61.166736,15.221840,1,,
9021020531011000,Övre Gärdsjö,60.931428,15.243428,1,,
9021020531012000,Arvet,61.146409,15.133750,1,,
9021020531013000,Hedlunds Furudal,61.168781,15.135420,1,,
9021020531014000,Gamla skolan Sörboda,61.110008,15.251430,1,,
9021020531015000,Andrens Sörboda,61.106039,15.252816,1,,
9021020531016000,Furudals bruk,61.195403,15.170569,1,,
9021020531017000,Sjankheden,61.129514,15.140103,1,,
9021020531018000,Dalfors,61.214658,15.404191,1,,
9021020531019000,Sörboda,61.104375,15.249888,1,,
9021020531020000,Störstugan,61.112645,15.250985,1,,
9021020531021000,Norrboda gammelstan,61.116575,15.249692,1,,
9021020531022000,Gamla skolan Norrboda,61.121420,15.245015,1,,
9021020531023000,Skarabacken,61.129384,15.231085,1,,
9021020531024000,Korsgatan,61.134627,15.228373,1,,
9021020531025000,Sunnanhed,61.138286,15.226691,1,,
9021020531026000,Sunnanhed norra,61.143460,15.219569,1,,
9021020531027000,Tvärbäcken,61.147245,15.215943,1,,
9021020531028000,Långbacken Östanvik,61.151552,15.213551,1,,
9021020531029000,Östansjövägen,61.154396,15.213432,1,,
9021020531030000,Bygdegården Östanvik,61.157386,15.214825,1,,
9021020531031000,Östanvik,61.163615,15.218080,1,,
9021020531032000,Tomtbacken,61.172111,15.223776,1,,
9021020531033000,Östanvik vsk,61.172001,15.208781,1,,
9021020531034000,Smedjan,61.171540,15.192029,1,,
9021020531035000,Oreborg,61.168844,15.141801,1,,
9021020531037000,Näcken,61.167065,15.135038,1,,
9021020531038000,Arvheden,61.162866,15.131523,1,,
9021020531039000,Arvet Gammelvägen,61.151742,15.131640,1,,
9021020531040000,Furudal ishallen,61.170828,15.138266,1,,
9021020531041000,Arvet södra,61.141613,15.135838,1,,
9021020531042000,Wallners,61.134433,15.135703,1,,
9021020531043000,Gamla skolan Dalhed,61.127425,15.144954,1,,
9021020531044000,Sågen Dalbyn,61.124778,15.150659,1,,
9021020531045000,Kyrkvägen,61.120348,15.162485,1,,
9021020531046000,Dalbyn,61.117631,15.163987,1,,
9021020531047000,Sörboda vsk,61.109509,15.164894,1,,
9021020531048000,Näset Lövgatan,61.182902,15.105219,1,,
9021020531049000,Raskens väg,61.180532,15.110253,1,,
9021020531050000,Genvägen,61.172396,15.127027,1,,
9021020531051000,Tillhedsvägen,61.173100,15.138571,1,,
9021020531052000,Vändhållplats Furudals bruk,61.195611,15.174805,1,,
9021020531053000,Hermansborgsvägen,61.193116,15.169034,1,,
9021020531054000,Ore Fritid,61.173521,15.166345,1,,
9021020531055000,Bäckmyra,61.105738,15.166417,1,,
9021020531056000,Born,60.959017,15.267859,1,,
9021020531057000,Tjällassen,61.027985,15.488003,1,,
9021020531058000,Bingsjö,61.024067,15.647623,1,,
9021020531059000,Ensro norra,60.963351,15.220175,1,,
9021020531060000,Österängarna,60.900597,15.183612,1,,
9021020531061000,Gulleråsen Sanden,61.079377,15.181058,1,,
9021020531062000,Peres Gulleråsen,61.076453,15.181533,1,,
9021020531063000,Sammis Gulleråsen,61.070757,15.182034,1,,
9021020531064000,Bystugan Gulleråsen,61.066198,15.180994,1,,
9021020531065000,Hampusgatu,61.060880,15.180951,1,,
9021020531066000,Gulleråsen södra,61.056573,15.185988,1,,
9021020531067000,Bysjön,61.054369,15.189753,1,,
9021020531068000,Kärvsåsen kiosken,61.050101,15.191631,1,,
9021020531069000,Kärvsåsen,61.047412,15.191406,1,,
9021020531071000,Vallen,61.041561,15.195340,1,,
9021020531072000,Änderåsen,61.037119,15.200385,1,,
9021020531073000,Silverberg,61.026133,15.209085,1,,
9021020531074000,Gammelgården Boda,61.020848,15.210414,1,,
9021020531075000,Nygårds,61.016542,15.209838,1,,
9021020531076000,Boda kyrkby,61.011691,15.211880,1,,
9021020531077000,Boda skola,61.007549,15.214786,1,,
9021020531078000,Dalstuga,61.061485,15.697970,1,,
9021020531079000,Svenskgården,61.002370,15.221721,1,,
9021020531080000,Trappfabriken Ovanmyra,61.000338,15.223070,1,,
9021020531081000,Wenngrens garage,60.997409,15.223318,1,,
9021020531082000,Ovanmyra bystugan,60.993941,15.223529,1,,
9021020531083000,Långsvens,60.991456,15.221709,1,,
9021020531084000,Klingsågen,60.988596,15.221179,1,,
9021020531085000,Ovanmyra vsk,60.983857,15.222218,1,,
9021020531086000,Solberga norra,60.979886,15.224184,1,,
9021020531087000,Solberga södra,60.974651,15.223670,1,,
9021020531088000,Ängsgatan Västgärde,60.837323,15.104762,1,,
9021020531089000,Mårtanberg rv 69,60.828659,15.243258,1,,
9021020531093000,Tina,60.857284,15.102254,1,,
9021020531094000,Majstången Utby,60.847590,15.103028,1,,
9021020531095000,Utby södra,60.843161,15.100330,1,,
9021020531096000,Utby norra,60.850273,15.102859,1,,
9021020531097000,Missionshuset Västgärde,60.833586,15.109164,1,,
9021020531098000,Västgärde,60.832028,15.109934,1,,
9021020531099000,Utanåker,60.836236,15.118393,1,,
9021020531100000,Västergrav,60.833997,15.124674,1,,
9021020531101000,Lööfgården,60.836441,15.134091,1,,
9021020531102000,Östergrav,60.837462,15.131790,1,,
9021020531103000,Slätta,60.840436,15.130716,1,,
9021020531106000,Bäck,60.847809,15.116553,1,,
9021020531107000,Altsarbyn,60.853909,15.110911,1,,
9021020531108000,Hantverksbyn,60.862926,15.103381,1,,
9021020531109000,Slalombacken,60.877718,15.130996,1,,
9021020531110000,Dalsåkersvägen,60.870179,15.113208,1,,
9021020531111000,Stora industriområdet Rättvik,60.895012,15.147974,1,,
9021020531112000,Glistjärna södra,60.927365,15.097490,1,,
9021020531113000,Jarlvägen 2,60.894477,15.124305,1,,
9021020531114000,Gymnasieskolan Rättvik,60.893775,15.103108,1,,
9021020531115000,Vikarbyns skola,60.909616,15.023445,1,,
9021020531116000,Jarlvägen 12,60.894156,15.121235,1,,
9021020531117000,Golfvägen,60.896309,15.121097,1,,
9021020531118000,Hjortgårdsvägen,60.913328,15.035280,1,,
9021020531119000,Boda vsk,61.004785,15.217887,1,,
9021020531120000,Ingels nedre,60.943301,15.230442,1,,
9021020531121000,Söderås bygatu,60.842410,15.126233,1,,
9021020531122000,Söderås skola,60.844607,15.123105,1,,
9021020531123000,Rättviksparken,60.889584,15.140212,1,,
9021020531125000,Stiernhööksgatan,60.886605,15.117143,1,,
9021020531133000,Vålsveden,60.887385,15.140129,1,,
9021020531134000,Kulturhuset,60.881804,15.120763,1,,
9021020531135000,Lissängsvägen Vikarbyn,60.909376,15.016245,1,,
9021020531136000,Vikarbyn affären,60.909743,15.020641,1,,
9021020531137000,Bystugan Vikarbyn,60.912091,15.024767,1,,
9021020531138000,Hjortgårdsområdet,60.915213,15.033889,1,,
9021020531139000,Persborg,60.898342,15.080816,1,,
9021020531140000,Kaplaskogen,60.896695,15.087596,1,,
9021020531141000,Stiftsgården,60.894408,15.098001,1,,
9021020531142000,Lilla Industriområdet Rättvik,60.890319,15.109843,1,,
9021020531143000,Rättvik resecentrum,60.885305,15.115734,1,,
9021020531144000,Höök Olles väg,60.889334,15.124304,1,,
9021020531145000,Genvägen,60.895097,15.126281,1,,
9021020531146000,Bilprovningen Rättvik,60.892445,15.144288,1,,
9021020531147000,Gamla mejeriet,60.887378,15.129779,1,,
9021020531148000,Knektplatsen,60.887897,15.125845,1,,
9021020531149000,Rättvik centrum,60.884866,15.119243,1,,
9021020531150000,Hemköp Rättvik,60.882922,15.121807,1,,
9021020531151000,Skolgatan,60.885105,15.124026,1,,
9021020531152000,Sågvägen Lerdal,60.874506,15.111660,1,,
9021020531153000,Byggmästargränd,60.871162,15.107167,1,,
9021020531154000,Gärdebygården,60.867982,15.104080,1,,
9021020531156000,ICA parkeringen Rättvik,60.883902,15.120276,1,,
9021020531157000,Nappa,60.877769,14.951995,1,,
9021020531158000,Hällskär,60.877912,14.942104,1,,
9021020531159000,Ingels skolan,60.944816,15.234298,1,,
9021020531160000,Spisarvet,60.937081,14.979598,1,,
9021020531161000,Travvägen,60.903963,15.122628,1,,
9021020531162000,Gamlavägen,60.949044,14.968613,1,,
9021020531163000,Tammeråsen norra,60.977177,14.920406,1,,
9021020531165000,Västbjörka nedre,60.917983,14.983245,1,,
9021020531166000,Nålängsvägen,60.862401,15.110340,1,,
9021020531168000,Rällsjön,60.772425,15.316969,1,,
9021020531169000,Offerbacken,60.860224,15.105916,1,,
9021020531170000,Vikarbyn pizzerian,60.910570,15.014704,1,,
9021020531171000,Karlsvik,60.879781,15.120052,1,,
9021020531172000,Lötvägen,60.885340,15.138588,1,,
9021020531178000,Gettorget,60.866596,15.112770,1,,
9021020531179000,Mårsgränd,60.867869,15.110828,1,,
9021020531180000,Lustiggården,60.872966,15.117658,1,,
9021020531181000,Dyrsmedsgatan,60.874462,15.120553,1,,
9021020531182000,Långbacken,60.877432,15.120489,1,,
9021020531183000,Fyrklövern,60.881645,15.133657,1,,
9021020531184000,Vårdcentralen Rättvik,60.887682,15.116263,1,,
9021020531185000,Springkällan,60.889358,15.127195,1,,
9021020531186000,Enådal,60.889476,15.125811,1,,
9021020531189000,Bertilsbo södra,60.786134,15.290608,1,,
9021020531190000,Hedslund,60.895718,15.124868,1,,
9021020531191000,Stumsnäs västra,60.877966,14.937850,1,,
9021020531192000,Stumsnäs östra,60.878807,14.957933,1,,
9021020531193000,Skräddargården,60.882084,14.960139,1,,
9021020531194000,Ickholmen,60.905822,14.959636,1,,
9021020531195000,Röjeråsen tornet,60.943689,14.986484,1,,
9021020531196000,Bystugan Röjeråsen,60.944290,14.980583,1,,
9021020531197000,Sågen Röjeråsen,60.942431,14.975373,1,,
9021020531198000,Gamla skolan Västbjörka,60.925758,14.980140,1,,
9021020531199000,Västbjörka,60.923587,14.981727,1,,
9021020531200000,Västbjörka södra,60.920228,14.984893,1,,
9021020531201000,Flinkgården,60.907459,14.989764,1,,
9021020531202000,Öja majstången,60.905403,14.994046,1,,
9021020531203000,Öja vsk Vikarbyn,60.908151,15.006360,1,,
9021020531204000,Källängsvägen,60.946124,14.971014,1,,
9021020531205000,Vikarbystrand,60.911722,15.046414,1,,
9021020531206000,Mårsgården,60.903557,15.057324,1,,
9021020531207000,Sjurbergs byväg,60.901417,15.067139,1,,
9021020531208000,Siljansborgsvägen Sjurberg,60.900326,15.072628,1,,
9021020531209000,Gamla Nittsjötvätten,60.914804,15.055134,1,,
9021020531210000,Tempelvägen,60.916465,15.070653,1,,
9021020531211000,Tammeråsen,60.974671,14.925573,1,,
9021020531212000,Nittsjö vsk,60.917530,15.075090,1,,
9021020531215000,Glistjärna norra,60.929460,15.096448,1,,
9021020531216000,Hosjögärde,60.925081,15.094084,1,,
9021020531217000,Hosjön,60.923568,15.090642,1,,
9021020531218000,Sätra,60.917291,15.090700,1,,
9021020531219000,Sätra skola,60.916989,15.093776,1,,
9021020531220000,Sätra norra,60.917407,15.096495,1,,
9021020531221000,Backa västra,60.924174,15.111104,1,,
9021020531222000,Bleckogårdsvägen Backa,60.925069,15.115114,1,,
9021020531223000,Backa,60.925698,15.117774,1,,
9021020531224000,Backa södra,60.920966,15.119996,1,,
9021020531225000,Ridskolan,60.907034,15.122931,1,,
9021020531226000,Hedslund IP,60.897719,15.124843,1,,
9021020531227000,Baggetorp,60.920847,15.209009,1,,
9021020531228000,Blecket,60.922788,15.274997,1,,
9021020531229000,Nedre Gärdsjö vsk,60.925455,15.216004,1,,
9021020531230000,Fyres,60.929805,15.216394,1,,
9021020531231000,Nedre Gärdsjö,60.932488,15.218419,1,,
9021020531232000,Bystugan Nedre Gärdsjö,60.937627,15.223839,1,,
9021020531233000,Giftings,60.940626,15.227179,1,,
9021020531234000,Ensro,60.956025,15.224906,1,,
9021020531235000,Ingels torget,60.945859,15.234833,1,,
9021020531237000,Västgärde rv 70,60.841530,15.100899,1,,
9021020531238000,Bertilsbo norra,60.793731,15.275695,1,,
9021020531240000,Söderås rv 69,60.843241,15.126371,1,,
9021020531242000,Brudviksgården,60.907173,15.054687,1,,
9021020531243000,Finnshögst,61.306599,15.509388,1,,
9021020531244000,Enåbadet,60.888046,15.130538,1,,
9021020531245000,Hsb-gatan,60.886408,15.118878,1,,
9021020531246000,Västanå vägskäl,60.990993,15.218262,1,,
9021020531248000,Lenåsen skolbusshållplats,60.999900,15.246745,1,,
9021020531250000,Silvberg,61.021424,15.213926,1,,
9021020531251000,Östra Boda,61.010950,15.219834,1,,
9021020531252000,Lenåsen,60.999972,15.246817,1,,
9021020531253000,Västanå,60.981605,15.206041,1,,
9021020531254000,Vikarbyn Skolgatu,60.910489,15.022373,1,,
9021020531255000,Harasviken,60.888410,14.965801,1,,
9021020531256000,Östbjörka norra,60.971748,15.134820,1,,
9021020531257000,Östbjörka södra,60.968397,15.141519,1,,
9021020531258000,Born Långgatan,60.955272,15.256074,1,,
9021020531259000,Born Torrångsvägen,60.959077,15.262561,1,,
9021020531260000,Born Majstången,60.960545,15.275162,1,,
9021020531261000,Övre Gärdsjö norra,60.939836,15.240992,1,,
9021020531262000,Missionshuset Övre Gärdsjö,60.935296,15.243286,1,,
9021020531263000,Sturgälsvägen,60.931796,15.239143,1,,
9021020531264000,Dådran kapellet,60.940692,15.537816,1,,
9021020531265000,Dådran Gillevägen,60.939266,15.542790,1,,
9021020531266000,Dådran norra,60.966473,15.527813,1,,
9021020531267000,Lassusuddvägen,60.987866,15.522435,1,,
9021020531268000,Tjällassen södra,61.012959,15.514667,1,,
9021020531269000,Tjällassen östra,61.021675,15.507393,1,,
9021020531270000,Finnbacka södra,61.051013,15.571425,1,,
9021020531271000,Finnbacka,61.057049,15.574473,1,,
9021020531272000,Hållberget,61.035657,15.537309,1,,
9021020531273000,Prästbodarna,60.945140,15.564807,1,,
9021020531274000,Mickelsgatan,60.877190,15.127638,1,,
9021020531275000,Persvägen,60.919579,15.101701,1,,
9021020531276000,Nisvägen,60.928154,15.121667,1,,
9021020531277000,Backa Norra,60.929699,15.129011,1,,
9021020531278000,Klysenhol,61.099933,15.170613,1,,
9021020531990000,Flexområde Tammeråsen,60.938668,14.991833,1,,
9021020531991000,Flexområde Östbjörka,60.971667,15.136723,1,,
9021020531993000,Flexområde Furudal,61.151195,15.220243,1,,
9021020531995000,Flexområde Håven,61.514918,15.159621,1,,
9021020534001000,Torsmo,61.198624,14.974883,1,,
9021020534007000,Digerbergets skola,61.087319,14.636444,1,,
9021020534008000,Ristningarna,61.151006,14.640458,1,,
9021020534009000,Hansjö kraft,61.142261,14.617423,1,,
9021020534011000,Björkvägen Sandhed,61.130817,14.596101,1,,
9021020534012000,Bjus,61.160718,14.623008,1,,
9021020534013000,Blickusvägen,61.136780,14.638384,1,,
9021020534014000,Burtsmyren,61.069061,14.647000,1,,
9021020534015000,Nils Johans väg,61.152703,14.625110,1,,
9021020534017000,Kallholn södra,61.161827,14.695078,1,,
9021020534018000,Orsbleck vägkorsningen,61.134341,14.697278,1,,
9021020534019000,Norra Mässbacken,61.184572,14.778952,1,,
9021020534020000,Heden södra,61.147578,14.659526,1,,
9021020534022000,Noppikoski OK/Q8,61.494210,14.847597,1,,
9021020534023000,Kvarnberg,61.441724,14.867596,1,,
9021020534024000,Emådalen,61.320025,14.731203,1,,
9021020534025000,Tallhed,61.214675,14.696072,1,,
9021020534026000,Trunnavägen,61.107987,14.630988,1,,
9021020534027000,Gillevägen,61.111709,14.642100,1,,
9021020534028000,Ishallen Orsa,61.111601,14.647307,1,,
9021020534029000,Orsvensgården Slättberg,61.113970,14.657803,1,,
9021020534030000,Emmeråsen vsk,61.115211,14.661255,1,,
9021020534031000,Fredshammar vsk,61.184457,14.771575,1,,
9021020534032000,Mässbacken östra,61.183470,14.755229,1,,
9021020534033000,Mässbacken västra,61.183082,14.748131,1,,
9021020534034000,Björken östra,61.182135,14.740057,1,,
9021020534035000,Björken,61.181309,14.736618,1,,
9021020534036000,Orsa flygplats,61.179430,14.727090,1,,
9021020534037000,Nederberga,61.176348,14.719426,1,,
9021020534038000,Kallholn,61.172255,14.710954,1,,
9021020534039000,Kalkbruket,61.166866,14.704907,1,,
9021020534040000,Heden,61.153148,14.667059,1,,
9021020534041000,Skansen,61.143901,14.656150,1,,
9021020534042000,Born,61.138782,14.642579,1,,
9021020534043000,Flisvägen Orsa,61.135514,14.636240,1,,
9021020534044000,Grönklitt,61.207662,14.539197,1,,
9021020534046000,Fryksås vsk,61.192696,14.536320,1,,
9021020534047000,Lowars,61.137786,14.597032,1,,
9021020534048000,Hansjö,61.143147,14.608014,1,,
9021020534049000,Hansjöåsen,61.147375,14.611066,1,,
9021020534050000,Hansjö norra,61.150102,14.620137,1,,
9021020534051000,Hansjö mejeri,61.146572,14.626026,1,,
9021020534052000,Soling,61.141616,14.611469,1,,
9021020534053000,Brafvägen,61.135915,14.606153,1,,
9021020534054000,Hansjövägen Sandhed,61.133884,14.603910,1,,
9021020534055000,Hallingvägen,61.131641,14.598464,1,,
9021020534056000,Gamla plantskolan,61.130529,14.601012,1,,
9021020534057000,Lillåhem,61.121643,14.611119,1,,
9021020534058000,Bergvägen,61.132732,14.633122,1,,
9021020534059000,Borbosgatan,61.129003,14.626004,1,,
9021020534060000,Orsaskolan,61.126945,14.624104,1,,
9021020534061000,Biografen Orsa,61.124298,14.621596,1,,
9021020534062000,Kyrkbyns skola,61.121200,14.616860,1,,
9021020534063000,Orsa busstn,61.117942,14.619858,1,,
9021020534064000,Stormyrgatan,61.123277,14.624371,1,,
9021020534065000,Målargränd,61.120320,14.628026,1,,
9021020534066000,Knutarängsvägen,61.103079,14.626015,1,,
9021020534067000,Moravägen,61.116393,14.625389,1,,
9021020534068000,Holen,61.086677,14.625533,1,,
9021020534069000,Kungshaga,61.092446,14.633567,1,,
9021020534070000,Grindals väg Orsa,61.099984,14.635439,1,,
9021020534071000,Backvägen,61.106236,14.631925,1,,
9021020534072000,Oljonsbyn,61.096445,14.655546,1,,
9021020534073000,Nedre Oljonsbyn,61.099582,14.651288,1,,
9021020534074000,Stenberg,61.103485,14.648068,1,,
9021020534076000,Byxtorget,61.121587,14.621095,1,,
9021020534077000,Prinsvägen,61.114979,14.632575,1,,
9021020534078000,Högståsenvägen Viborg,61.086974,14.657317,1,,
9021020534079000,Viborg,61.091475,14.658480,1,,
9021020534080000,Lundkallgata,61.093105,14.618527,1,,
9021020534081000,Lisselhed,61.080275,14.608945,1,,
9021020534082000,Slättberg södra,61.110908,14.661819,1,,
9021020534083000,Slättberg torget,61.115928,14.657908,1,,
9021020534085000,Jättgrop,61.121105,14.660364,1,,
9021020534086000,Koldalsbackarna,61.123783,14.664999,1,,
9021020534087000,Stackmora östra,61.128105,14.673686,1,,
9021020534088000,Stackmora,61.131098,14.677922,1,,
9021020534089000,Stackmora vsk,61.132416,14.683731,1,,
9021020534090000,Orsbleck,61.135957,14.705584,1,,
9021020534091000,Mickelvål,61.147640,14.738398,1,,
9021020534092000,Brändanvägen,61.151838,14.748369,1,,
9021020534094000,Åberga,61.158819,14.759652,1,,
9021020534095000,Gruvbackarna,61.168631,14.768126,1,,
9021020534096000,Skogis,61.173833,14.772462,1,,
9021020534097000,Kallmora skolan,61.177978,14.774649,1,,
9021020534098000,Kallmora,61.181265,14.778492,1,,
9021020534099000,Kallmora vsk,61.183699,14.786992,1,,
9021020534100000,Älvhöjden,61.186706,14.827204,1,,
9021020534101000,Kyrkvägen Skattungbyn,61.187390,14.838654,1,,
9021020534102000,Olgatan Skattungbyn,61.187144,14.848348,1,,
9021020534103000,Skattungbyn gamla stationen,61.198832,14.869271,1,,
9021020534104000,Skattunge handel,61.186320,14.857483,1,,
9021020534105000,Torrvål,61.078834,14.650599,1,,
9021020534106000,Maggås,61.058214,14.645452,1,,
9021020534107000,Wixnersvägen Vångsgärde,61.082670,14.621957,1,,
9021020534108000,Vångsgärde,61.077495,14.619371,1,,
9021020534109000,Vångsgärde södra,61.071043,14.618464,1,,
9021020534112000,Maklinsgatan,61.127650,14.623596,1,,
9021020534113000,Sandhed,61.128647,14.601817,1,,
9021020534114000,Harkålsvägen,61.106863,14.632811,1,,
9021020534115000,Knapptågsvägen,61.105598,14.638050,1,,
9021020534116000,Blåtryvägen,61.107866,14.639821,1,,
9021020534117000,Unnåns kraftstation,61.148158,14.634955,1,,
9021020534118000,Kajsvägen,61.170055,14.619313,1,,
9021020534119000,Övre Hornbergavägen,61.194776,14.614590,1,,
9021020534120000,Bystugan Hornberga,61.197052,14.613183,1,,
9021020534121000,Kallmansvägen,61.199050,14.620938,1,,
9021020534122000,Lindbergs,61.194762,14.621155,1,,
9021020534123000,Kallovavägen,61.138903,14.602104,1,,
9021020534124000,Topersvägen,61.152942,14.628797,1,,
9021020534126000,Bergetskolan,61.112392,14.643216,1,,
9021020534128000,Lindängsvägen,61.097315,14.621669,1,,
9021020534131000,Blästgatan,61.116625,14.626308,1,,
9021020534132000,Järnvägsgatan (Orsa),61.118793,14.620717,1,,
9021020534133000,Stenbergsvägen,61.110698,14.633151,1,,
9021020534134000,Skattungbyns skola skolbusshpl,61.187055,14.839575,1,,
9021020534135000,Vångsgärde skolbusshållplats,61.075172,14.619495,1,,
9021020534136000,Holen skolbusshållplats,61.086651,14.625626,1,,
9021020534138000,Turistvägen,61.055759,14.647477,1,,
9021020534139000,Lövavägen,61.077780,14.606909,1,,
9021020534140000,Moravägen 63,61.099214,14.635745,1,,
9021020534141000,Lisselhed södra,61.062539,14.596651,1,,
9021020534142000,Lid Annas väg,61.096214,14.636412,1,,
9021020534143000,Gubb Olles väg,61.078001,14.616684,1,,
9021020534144000,Gamla Postvägen,61.100880,14.643583,1,,
9021020534145000,Bonandervägen,61.144336,14.620762,1,,
9021020534146000,Nissavägen,61.140591,14.606180,1,,
9021020534147000,Mickolavägen,61.151839,14.640279,1,,
9021020534148000,Mosippevägen,61.200040,14.887017,1,,
9021020534150000,Landsvägen 114,61.173431,14.713264,1,,
9021020534151000,Landsvägen 450,61.187561,14.843818,1,,
9021020534152000,Landsvägen 479,61.186566,14.854167,1,,
9021020534153000,Snabbvägen,61.153597,14.635013,1,,
9021020534154000,Notgatan,61.187505,14.839785,1,,
9021020534155000,Landsvägen 238,61.184520,14.775681,1,,
9021020534991000,Flexområde Näckådalen,61.313443,14.413677,1,,
9021020534993000,Flexområde Tallhed,61.236048,14.706529,1,,
9021020534998000,Maggås skolhållplats,61.058511,14.649210,1,,
9021020534999000,Macken Orsa,61.115230,14.626935,1,,
9021020539001000,Grövelsjön fjällstationen,62.098677,12.312653,1,,
9021020539002000,Storsätra fjällhotell,62.070230,12.311577,1,,
9021020539003000,Grövelsjögården,62.093590,12.309319,1,,
9021020539004000,Grövelfjäll,62.085653,12.309094,1,,
9021020539005000,Huskläppen,62.074295,12.310861,1,,
9021020539006000,Storsätern Kapellet,62.062936,12.318102,1,,
9021020539007000,Storsätern,62.058669,12.318994,1,,
9021020539008000,Sågliden,62.022057,12.386764,1,,
9021020539009000,Sågliden södra,62.017067,12.397790,1,,
9021020539011000,Fjällfoten,61.871203,12.737929,1,,
9021020539013000,Idre Fjäll,61.889941,12.830072,1,,
9021020539014000,Idre Samecentrum,61.857748,12.714551,1,,
9021020539016000,Lillvattnet,61.811990,12.466419,1,,
9021020539017000,Flötningen affären,61.862007,12.213889,1,,
9021020539018000,Sjöändan Idre,61.829405,12.855562,1,,
9021020539021000,Idre Idrebua,61.857768,12.720252,1,,
9021020539022000,Sundbäcken,61.848863,12.766743,1,,
9021020539023000,Strandskolan Idre,61.856808,12.719893,1,,
9021020539024000,Floåsen,61.999696,12.453660,1,,
9021020539025000,Gröveldalsvallen,61.961521,12.552577,1,,
9021020539026000,Vassbo gruva,61.945043,12.560653,1,,
9021020539027000,Höstsätern norra,61.901215,12.608170,1,,
9021020539028000,Höstsätern,61.899285,12.610751,1,,
9021020539029000,Höstsätern södra,61.895546,12.616995,1,,
9021020539030000,Västanåt Idre,61.857309,12.705014,1,,
9021020539031000,Flötningen,61.859436,12.227236,1,,
9021020539032000,Storbo södra,61.840459,12.287170,1,,
9021020539033000,Flickerbäcken,61.807701,12.424781,1,,
9021020539034000,Drevdagen Slingan,61.760707,12.401873,1,,
9021020539035000,Storbo norra,61.843263,12.283370,1,,
9021020539036000,Drosbacken,61.813049,12.481531,1,,
9021020539037000,Grötholen södra,61.829435,12.604899,1,,
9021020539038000,Grötholen,61.833241,12.606364,1,,
9021020539040000,Sporthotellet Idre,61.861135,12.720018,1,,
9021020539041000,Idre Konsum,61.857839,12.726205,1,,
9021020539042000,Idregården,61.856683,12.731920,1,,
9021020539043000,Idresjön,61.853043,12.747881,1,,
9021020539047000,Östomsjön,61.687003,13.210849,1,,
9021020539048000,Nordomsjön,61.707524,13.133635,1,,
9021020539050000,Källan rv 70,61.694777,13.103797,1,,
9021020539052000,Strömsillret,61.696750,12.628806,1,,
9021020539053000,Buskoviusskolan Särna,61.693056,13.147744,1,,
9021020539055000,Älvros,61.795246,12.921217,1,,
9021020539056000,Kringelfjorden,61.759284,12.956287,1,,
9021020539057000,Särnaheden norra,61.738424,12.979007,1,,
9021020539058000,Särnaheden,61.730669,12.988284,1,,
9021020539059000,Särnaheden södra,61.725349,12.993758,1,,
9021020539061000,Jolarsvägen,61.694843,13.124731,1,,
9021020539062000,Särna kyrkan,61.693322,13.139724,1,,
9021020539064000,Svegvägen Särna,61.688802,13.160851,1,,
9021020539065000,Sörberget rv 70,61.654976,13.180681,1,,
9021020539068000,Fulan,61.652643,12.754941,1,,
9021020539069000,Mörkret,61.653484,12.747965,1,,
9021020539070000,L Njupåsen,61.666392,12.695940,1,,
9021020539071000,Tjärnvallen,61.677513,12.673236,1,,
9021020539072000,Storbäcken,61.689171,12.592676,1,,
9021020539073000,Lillådalen,61.656122,12.483004,1,,
9021020539074000,Sågbäcken,61.601212,12.491345,1,,
9021020539075000,Fulufjället Njupeskär,61.635434,12.718454,1,,
9021020539076000,Gördalen norra,61.595117,12.496295,1,,
9021020539077000,Glysjön,61.511334,13.374812,1,,
9021020539078000,Särnstugan norra,61.542367,13.340075,1,,
9021020539079000,Särnstugan,61.529509,13.357897,1,,
9021020539080000,Rånäs,61.506690,13.387276,1,,
9021020539081000,Nornäsvägen,61.446903,13.451176,1,,
9021020539082000,Bunkris,61.430831,13.469783,1,,
9021020539083000,Garberg,61.111511,14.262817,1,,
9021020539085000,Blybergsvilan,61.147957,14.147136,1,,
9021020539086000,Blyberg,61.151167,14.183911,1,,
9021020539088000,Gumgården,61.121213,14.236264,1,,
9021020539089000,Garberg rv 70,61.111558,14.267814,1,,
9021020539090000,Lövnäs östra,61.349739,13.367338,1,,
9021020539091000,Nornäs,61.431722,13.240802,1,,
9021020539092000,Tyrinäs,61.401097,13.277551,1,,
9021020539093000,Lövnäs,61.345865,13.358610,1,,
9021020539094000,Lövnäsvägen,61.352085,13.552053,1,,
9021020539095000,Hållstugan,61.329836,13.590103,1,,
9021020539096000,Rytterbygget Storbäcken,61.316616,13.657912,1,,
9021020539097000,Rytterbygget,61.313591,13.677026,1,,
9021020539098000,Trängsletvägen,61.306829,13.721132,1,,
9021020539099000,Stenbäcken,61.279488,13.786690,1,,
9021020539100000,Åsen bystugan,61.274333,13.816896,1,,
9021020539101000,Digerberg,61.278312,13.839231,1,,
9021020539102000,Västerby,61.269652,13.811710,1,,
9021020539105000,Åsenbron,61.280779,13.769745,1,,
9021020539106000,Högåsen,61.276645,13.802277,1,,
9021020539107000,Åsen kapellet,61.274388,13.824352,1,,
9021020539108000,Åsen östra,61.275512,13.829046,1,,
9021020539109000,Rambelås,61.286003,13.907456,1,,
9021020539110000,Brunnsberg,61.283973,13.922829,1,,
9021020539111000,Gröt,61.283564,13.929242,1,,
9021020539112000,Brunnsäng,61.282587,13.936174,1,,
9021020539113000,Utbildningscentrum Älvdalen,61.225178,14.052383,1,,
9021020539114000,Loka by,61.273709,14.000802,1,,
9021020539115000,Älvdalsskolan,61.226770,14.040844,1,,
9021020539118000,Grundkitt,61.180066,14.080509,1,,
9021020539119000,Kittan,61.268544,14.081883,1,,
9021020539120000,Mångsbodarna,61.078558,13.620449,1,,
9021020539121000,Risberg,61.085879,13.771856,1,,
9021020539122000,Rots skola,61.256102,14.026208,1,,
9021020539124000,Dysberg nedre,61.149116,13.938551,1,,
9021020539125000,Kuntmått,61.276314,13.966162,1,,
9021020539126000,Lokaheden,61.270183,13.998907,1,,
9021020539127000,Loka rv 70,61.267276,14.008443,1,,
9021020539128000,Månsta vsk,61.257570,14.027281,1,,
9021020539129000,Klitten,61.279544,14.105003,1,,
9021020539130000,Klitten nedre,61.278327,14.096770,1,,
9021020539131000,Liden,61.267548,14.074909,1,,
9021020539132000,Kvarnvägen Rot,61.259424,14.039384,1,,
9021020539133000,Rot,61.255499,14.034386,1,,
9021020539134000,Vagnvägen,61.251257,14.040821,1,,
9021020539135000,Bystugevägen Rot,61.256855,14.043368,1,,
9021020539136000,Vasslenvägen Rot,61.257472,14.051096,1,,
9021020539137000,Isbanan Näset,61.256862,14.057047,1,,
9021020539138000,Bystugan Näset,61.256456,14.065307,1,,
9021020539139000,Näset,61.256608,14.069426,1,,
9021020539140000,Kanonvägen Näset,61.254474,14.071026,1,,
9021020539141000,Porfyrgårdsvägen,61.253928,14.064096,1,,
9021020539142000,Tenn Lars väg Näset,61.251455,14.057180,1,,
9021020539143000,Bruksvägen Holen,61.250741,14.049151,1,,
9021020539144000,Holen Älvdalen,61.249488,14.040091,1,,
9021020539145000,Brandvägen Holen,61.247507,14.036886,1,,
9021020539146000,Norra Byn Älvdalen,61.235446,14.034360,1,,
9021020539147000,Älvdalen Apoteket,61.230919,14.036887,1,,
9021020539148000,Älvdalen centrum,61.226799,14.040283,1,,
9021020539149000,Risåsenvägen Evertsberg,61.138365,13.961022,1,,
9021020539151000,Evertsberg,61.134337,13.955260,1,,
9021020539152000,Telestationen Evertsberg,61.137666,13.954546,1,,
9021020539153000,Evertsberg norra,61.140018,13.953851,1,,
9021020539154000,Dysberg övre,61.151951,13.937139,1,,
9021020539155000,Skolan Västäng,61.205078,14.041835,1,,
9021020539156000,Skjutbanevägen Västäng,61.200460,14.051200,1,,
9021020539157000,Väsa norra,61.193302,14.061632,1,,
9021020539158000,Väsa bygdegården,61.189895,14.065791,1,,
9021020539159000,Väsa,61.187540,14.069352,1,,
9021020539160000,Väsa södra,61.184527,14.075236,1,,
9021020539162000,Älvdalen busstn,61.223119,14.044474,1,,
9021020539163000,Trotvägen,61.218820,14.050066,1,,
9021020539164000,Skärklitts väg,61.217015,14.051376,1,,
9021020539165000,Mjågen,61.209965,14.058068,1,,
9021020539166000,Märbäck,61.202910,14.070645,1,,
9021020539167000,Boggån,61.196336,14.080866,1,,
9021020539168000,Skinnarboda rv 70,61.191757,14.084678,1,,
9021020539169000,Gåsvarv,61.184614,14.091194,1,,
9021020539170000,Gåsvarv södra,61.179453,14.097637,1,,
9021020539172000,Nornäs skola,61.435666,13.242587,1,,
9021020539173000,Idre Samegården,61.857748,12.714551,1,,
9021020539174000,Örebäcken,61.753475,12.960822,1,,
9021020539175000,Västängsbron,61.214156,14.033789,1,,
9021020539176000,Rasuberg,61.280759,13.777990,1,,
9021020539177000,Blybergs backar,61.149916,14.176862,1,,
9021020539178000,Karlsarvet 59,61.274617,13.948331,1,,
9021020539179000,Trängsletdammen,61.382139,13.717754,1,,
9021020539180000,Östomsjön mitt,61.693675,13.187790,1,,
9021020539181000,Väsa vsk,61.211723,14.034791,1,,
9021020539182000,Dysberg vsk.,61.147936,13.950638,1,,
9021020539183000,Östomsjön vsk,61.693684,13.177013,1,,
9021020539184000,Karlsarvet Timber,61.270881,13.965314,1,,
9021020539185000,Synnanåt vsk,61.851981,12.710475,1,,
9021020539186000,Drevdagen,61.763981,12.407141,1,,
9021020539187000,Älvdalens simhall,61.227620,14.031002,1,,
9021020539188000,Fjärdtjärnsvägen,61.424809,13.218757,1,,
9021020539189000,Lövnäs Tyrisnäsvägen,61.346449,13.353648,1,,
9021020539190000,Idre Glimten,61.857128,12.727731,1,,
9021020539191000,Solängsgården Idre,61.856793,12.718031,1,,
9021020539192000,Biblioteket Älvdalen,61.227858,14.040317,1,,
9021020539193000,Coop Konsum Älvdalen,61.228419,14.038554,1,,
9021020539194000,Vårdcentralen Älvdalen,61.231764,14.041104,1,,
